Provider,Data Center Name,Address,Latitude,Longitude,Zip
Amazon AWS,"PDX4 Boardman, OR","79539 Rippee Road, Boardman, OR 97818, USA",45.8272,-119.7206,97818
Microsoft Azure,Des Moines Data Center,"550 White Crane Rd, West Des Moines, IA 50265, USA",41.5805,-93.7447,50265
Flexential,Denver - Englewood Data Center,"8636 South Peoria Street, Englewood, CO, USA",39.558980110827,-104.838264884818,
Google,"Mayes County, OK Data Center",4111 North East 1st Street,40.863083008143,-96.293765897763,
Microsoft Azure,East US-Virginia,"101 Herbert Drive, Boydton, VA, USA",36.676758852171,-78.376503688459,
Amazon AWS,IAD23 Ashburn,"43830 Devin Shafron Dr, Ashburn, VA 20147, USA",39.0373,-77.4805,20147
Microsoft Azure,West US 2-Washington,"1515 Port Industrial Way, Quincy, WA, USA",47.238872576151,-119.880227493066,
Microsoft Azure,South Central US-Texas,"5150 Rogers Rd, San Antonio, TX, USA",29.479861780759,-98.69263905971,
Microsoft Azure,North Central US-Illinois,"601 Northwest Avenue, Northlake, IL, USA",41.923183785716,-87.918338043577,
"Meta, Inc.",Newton (Atlanta) Data Center,"240 Shire Parkway, Social Circle, GA, USA",33.600320515037,-83.700942305709,
Amazon AWS,13600 EDS Drive,"13600 EDS Drive, Herndon, VA, USA",38.923338986432,-77.424265508272,13600
Google,"Montgomery County, TN Data Center","1000 Boolean Dr, Clarksville, TN 37040, USA",36.522,-87.349,37040
Amazon AWS,Dublin OH,"5895 Houchard Road, Dublin, OH, USA",40.09053361995,-83.200086070602,
Voxility,DC2 Ashburn Data Center,"21715 Filigree Court, Ashburn, VA, USA",39.3869,-77.658,21715
Apple Inc.,Maiden Data Center,"5977 Startown Road, Newton, NC, USA",35.587900847005,-81.261640256858,
Google,"The Dalles, OR Data Center","4200 Columbia Rd, The Dalles, OR 97058, USA",45.5995,-121.1905,97058
Flexential,Dallas - Richardson Data Center,"3010 Waterview Pkwy, Richardson, TX 75080, USA",32.966,-96.7452,75080
Amazon AWS,5113 Hayden Run,"5113 Hayden Run Rd, Hilliard, OH 43026, USA",40.0322,-83.1383,43026
Equinix,NY4 Secaucus Data Center,"755 Secaucus Road, Secaucus, NJ, USA",40.777000477899,-74.069343383456,
Amazon AWS,New Albany OH,"2570 Beech Road Northwest, Johnstown, OH, USA",40.094704004049,-82.751419023961,
Google,"Douglas County, GA Data Center","300 Riverside Parkway, Lithia Springs, GA, USA",33.749730160343,-84.584902843733,
Apple Inc.,Mesa Data Center,"3740 South Signal Butte Road, Mesa, AZ, USA",33.347814634139,-111.60409940947,
Google,"Midlothian, TX Data Center","3800 Railport Pkwy, Midlothian, TX, USA",32.443115968464,-97.048678955552,
Amazon AWS,7400 Potranco Rd,"7400 Potranco Rd, San Antonio, TX 78251, USA",29.4597,-98.6555,78251
365 Data Centers,TX1 Richardson Data Center,"1001 East Campbell Road, Richardson, TX, USA",32.976123999327,-96.707292002024,
Flexential,Dallas - Downtown Data Center,"1950 North Stemmons Freeway suite 2033, Dallas, TX 75207, USA",32.7939,-96.8319,75207
Equinix,CH3 Elk Grove Data Center,"1905 Lunt Avenue, Elk Grove Village, IL, USA",42.001454374754,-87.954853804761,
Equinix,MI1 Miami Data Center,"50 Northeast 9th Street, Miami, FL, USA",25.782576294515,-80.192770408556,
Amazon AWS,2580 Beech Rd,"2580 Beech Rd NW, Johnstown, Ohio 43031, USA",40.1445,-82.6973,43031
QuadraNet,Los Angeles - Downtown HQ Data Center,"530 W 6th St, Los Angeles, CA, USA",34.048538847849,-118.255196827583,
Amazon AWS,IAD55 Haymarket,"15395 John Marshall Hwy, Haymarket, VA 20169, USA",38.8674,-77.6445,20169
China Telecom,PhoenixNAP Phoenix Data Center,"3402 E University Dr, Phoenix, AZ 85034, USA",33.4413,-112.0421,85034
Switch Data Centers,Switch Data Centers: Keep Data Center,"1 Switch Way, Lithia Springs, GA, USA",33.754919606147,-84.587328901788,
Google,"New Albany, OH Data Center","1101 Beech Rd SW, New Albany, OH, USA",40.058510443223,-82.764326484298,
UnitedLayer,One Wilshire Data Center,"624 South Grand Avenue, Los Angeles, CA, USA",34.047901320294,-118.255525230549,
Amazon AWS,IAD12 Sterling,"22630 Dulles Summit Court, Sterling, VA, USA",38.9268,-78.1796,22630
QuadraNet,Los Angeles - Century Data Center,"6171 West Century Boulevard, Los Angeles, CA, USA",33.945902485375,-118.39357333183,
Equinix,DA1 Dallas Data Center,"1950 North Stemmons Freeway, Dallas, TX, USA",32.800303563848,-96.817809071773,
Apple Inc.,Prineville Data Center,"1600 SW Baldwin Rd, Prineville, OR 97754, USA",44.3045,-120.8336,97754
"Meta, Inc.",Forest City Data Center,"480 Social Circle, Forest City, NC, USA",35.316729354556,-81.828015378213,
Edged,ATL01-01 Data Center,"1800 Thomas Street Northwest, Atlanta, GA 30318, USA",33.7865,-84.4454,30318
Microsoft Azure,West Central US-Wyoming,"644 Logistics Dr, Cheyenne, WY 82009, USA",41.1836,-104.8023,82009
CyrusOne,NYM1 Somerset Data Center,"800 Cottontail Lane, Somerset, NJ, USA",40.538071939041,-74.546183820137,
Microsoft Azure,West US 3-Arizona,"12901 West Olive Avenue, El Mirage, AZ 85335, USA",33.6082,-112.3241,85335
"Meta, Inc.",New Albany Ohio Data Center,"1 Community Circle, New Albany, OH, USA",40.068432646835,-82.750334992423,
Google,"Jackson County, AL Data Center","48809 Alabama 277, Bridgeport, AL, USA",43.0885,-85.2313,48809
Serverfarm,LAX1 Los Angeles Data Center,"444 North Nash Street, El Segundo, CA, USA",33.921783181802,-118.386332624772,
Amazon AWS,IAD22 Chantilly,"4155 Westfax Drive, Chantilly, VA, USA",38.897891486482,-77.455261702396,
Amazon AWS,Livestock Campus,"28803 NW Livestock Rd, Hermiston, Oregon 97838, USA",45.845,-119.2849,97838
Google,Lockbourne Data Center,"5076 S High St, Lockbourne, Ohio 43137, USA",39.8142,-82.9764,43137
Apple Inc.,Waukee IA Data Center,"2995 W Hickman Rd, Waukee, IA, USA",41.619563424783,-93.927288890782,
"Meta, Inc.",Huntsville Data Center,"5400 Prosperity Dr NW, Toney, AL, USA",34.840703967419,-86.628921379628,
Google,"Lenoir, NC Data Center",708 Lynhaven Drive,35.899741346945,-81.547447539232,
Equinix,SV1 San Jose Data Center,"11 Great Oaks Boulevard, San Jose, CA, USA",37.241592634116,-121.783278594624,
"Meta, Inc.",Los Lunas Data Center,"4250 Messenger Loop, Los Lunas, NM, USA",34.826112750371,-106.775185916002,
Digital Realty,Chicago ORD10 Data Center,"350 East Cermak Road, Chicago, IL, USA",41.853685864179,-87.618359200479,
Equinix,SV5 San Jose Data Center,"9 Great Oaks Boulevard, San Jose, CA, USA",37.242212350127,-121.781740934486,
Amazon AWS,2305 Mission College Blvd,"2305 Mission College Blvd, Santa Clara, CA 95054, USA",37.3924,-121.9623,95054
T5 Data Centers,@Chicago 1441 West Touhy Avenue Data Center,"1441 West Touhy Avenue, Elk Grove Village, IL, USA",42.006706098098,-87.964636575414,
Amazon AWS,IAD60 Ashburn,"21267 Smith Switch Road, Ashburn, VA, USA",39.028712668935,-77.458326880568,21267
Digital Realty,Silicon Valley SFO12 Data Center,"365 Main Street, San Francisco, CA, USA",37.788734020567,-122.390469192709,
Amazon AWS,PDX2 Umatilla,"2400 Beach Access Road, Umatilla, OR 97882, USA",45.8998,-119.3553,97882
Csquare,Chicago (CH1-Lisle) Data Center,"4513 Western Ave, Lisle, Illinois, USA",41.802321812977,-88.094793366312,
Amazon AWS,45305 Sterling,"45305 West Severn Way, Sterling, VA, USA",39.6402,-84.0824,45305
Amazon AWS,Hilliard 5109 Hayden Run,"5109 Hayden Run Rd, Hilliard, OH 43026, USA",40.0322,-83.1383,43026
Csquare,Dallas (DA2-Webb Chapel) Data Center,"11830 Webb Chapel Rd, Dallas, TX, USA",32.91189557077,-96.870931310985,11830
Csquare,ORD2 (Chicago) Elk Grove Village Data Center Campus,"2425 Busse Road, Elk Grove Village, IL, USA",41.992158760313,-87.958090895767,
Csquare,Dallas (DA1-Allen) Data Center,"900 Guardians Way, Allen, TX, USA",33.094923479061,-96.683613628467,
DataBank,DataBank ATL1 Data Center,"760 W Peachtree St NW, Atlanta, GA, USA",33.775599144295,-84.387759475218,
QTS Data Centers,Atlanta 1 DC1 Data Center,"1033 Jefferson Street Northwest, Atlanta, GA, USA",33.77764944163,-84.421098159822,
Amazon AWS,Port of Morrow 3,"73200 Lewis and Clark Drive, Boardman, OR, USA",44.496047480263,-123.434226775278,73200
Google,Arcola Campus,"24400 Howling Rooster Ln, Dulles, VA, USA",38.943023676492,-77.524246693367,24400
Amazon AWS,11200 Thomasson Barn,"11200 Thomasson Barn Road, Manassas, VA, USA",38.743836967621,-77.530570084942,11200
Amazon AWS,1125 Electron Ave,"1125 Electron Ave, Berwick, Pennsylvania 18603, USA",41.0665,-76.2443,18603
Amazon AWS,IAD100 Manassas,"10321 Tanner Way, Manassas, VA 20110, USA",38.7492,-77.4878,20110
Voxility,CoreSite LA2 data center Los Angeles,"900 North Alameda Street, Los Angeles, California 90012, United States",34.0614,-118.2385,90012
Microsoft Azure,San Antonio (SN7) - Texas,"5200 Rogers Rd, San Antonio, Texas 78251, USA",29.4597,-98.6555,78251
DataBank,DFW3 - Plano Data Center,"8375 Dominion Pkwy, Plano, TX, USA",33.087793538853,-96.815156786151,
Csquare,EWR2 Weehawken Data Center Campus,"300 J F Kennedy Boulevard East, Weehawken, NJ, USA",40.772386631761,-74.015846992621,
"Meta, Inc.",Henrico Data Center,"6200 Technology Blvd, Sandston, VA, USA",37.483077527714,-77.236027660424,
Amazon AWS,Scioto Campus,"4120 Scioto Darby Creek Road, Hilliard, Ohio 43026, USA",40.0322,-83.1383,43026
Amazon AWS,Fadeley II,"42800 Fadeley Ln, Sterling, VA 20166, USA",38.9814,-77.4723,20166
Equinix,NY5 Secaucus Data Center,"800 Secaucus Road, Secaucus, NJ, USA",40.778721450259,-74.072264309075,
Google,111 Eight Avenue,"111 8th Avenue, New York, New York 10011, USA",40.7402,-73.9996,10011
Microsoft Azure,Goodyear - USA (PHX70),"3785 Citrus Rd, Goodyear, Arizona 85338, USA",33.4368,-112.3834,85338
CyrusOne,CHI2 Chicago Aurora Data Center,"2805 Diehl Rd, Aurora, IL, USA",41.796971350814,-88.244688868637,
Csquare,ATL1 Atlanta Data Center Campus,"375 Riverside Parkway, Lithia Springs, GA, USA",33.744238714568,-84.581211621212,
Apple Inc.,Reno Data Center,"21505 Technology Way, Reno, NV 89521, USA",39.3809,-119.6859,89521
Csquare,TPA1 Tampa Data Center Campus,"9310 Florida Palm Drive, Tampa, FL, USA",27.944918679048,-82.351301332168,
Google,Southlands Campus,"10420 Bunge Ave, Council Bluffs, Iowa 51503, USA",41.2616,-95.8251,51503
"Meta, Inc.",Prineville Data Center,"735 S.W. Connect Way, Prineville, OR, USA",44.294324407491,-120.887187347229,
Summit,"Elk Grove Village, IL Data Center","2200 Busse Road, Elk Grove Village, IL, USA",41.994254319926,-87.960598090645,
Equinix,NY7 North Bergen Data Center,"5851 West Side Avenue, North Bergen, NJ, USA",40.796910515426,-74.031199018485,
Digital Realty,Dallas DFW10 Data Center,"2323 Bryan Street, Dallas, TX, USA",32.787251012766,-96.794063307715,
Amazon AWS,22420 Kipper,"22420 Kipper Dr, Dulles, VA 20166, USA",38.9814,-77.4723,20166
Telefonica Global Solutions,Miami KeyCenter,11300 Northwest 25th Street,34.311974,-78.161411,11300
Equinix,AT4 Atlanta Data Center,"450 Interstate North Parkway, Atlanta, GA, USA",33.89549698862,-84.453555990222,
Equinix,NY11 Carteret Data Center,"1400 Federal Boulevard, Carteret, NJ, USA",40.584258698199,-74.243494269551,
Equinix,DC11 Ashburn Data Center,"21721 Filigree Court, Ashburn, VA, USA",39.6425,-77.6372,21721
CyrusOne,CHI1 Chicago Aurora Data Center,"2905 Diehl Road, Aurora, IL, USA",41.796421581784,-88.243067976201,
Lumen,Salt Lake City 3 Data Center,"3670 West 500 South, Salt Lake City, UT, USA",40.758818160165,-111.978418273841,
Equinix,SE4 Kent Data Center,"6906 S 204th St, Kent, WA, USA",47.421480467274,-122.247464872081,
Lumen,Birmingham 1 Data Center,"401 6th Street North, Birmingham, AL, USA",33.508121179108,-86.826800472366,
Firstlight Fiber,FirstLight Portland,"340 Cumberland Ave, Portland, Maine, EE. UU.",43.657808505771,-70.261375871609,
Equinix,PH1 Philadelphia Data Center,"401 North Broad Street, Philadelphia, PA, USA",39.959830255229,-75.160838083905,
Lumen,Santa Barbara 1 Data Center,"122 Helena Ave, Santa Barbara, CA, USA",34.414419105469,-119.690166329821,
DataBank,DataBank ATL2 Data Center,"1100 White Street Southwest, Atlanta, GA, USA",33.733934882904,-84.425761850749,
Amazon AWS,IAD71 Ashburn,"21263 Smith Switch Rd, Ashburn, VA, USA",39.2847,-76.6205,21263
Amazon AWS,"PDX1 Boardman, OR","73575 Lewis and Clark Drive, Boardman, OR 97818, USA",45.8272,-119.7206,97818
QTS Data Centers,Irving - Dallas DC1 & DC2 Data Center,"6431 Longhorn Dr, Irving, TX, USA",32.896784843363,-96.982505757819,
Google,"Papillion, NE Data Center","14706 Schram Road, Papillion, NE 68138, USA",41.1549,-96.1376,68138
Equinix,AT1 Atlanta IBX Data Center,"180 Peachtree Street Northwest, Atlanta, GA, USA",33.75878462743,-84.388707133191,
QTS Data Centers,Suwanee Data Center 1,"300 Satellite Boulevard, Suwanee, Georgia 30024, USA",34.0425,-84.0262,30024
CyrusOne,DFW1 Dallas Carrollton Data Center,"1649 West Frankford Road, Carrollton, TX, USA",32.992556259498,-96.930689502941,
"Meta, Inc.",Cheyenne,"114 West 10th Street, Cheyenne, WY, USA",41.127821892094,-104.8115376778,
Digital Realty,Atlanta ATL13 Data Center,"56 Marietta Street NorthWest, Atlanta, GA, USA",33.755475200599,-84.391527392152,
CyrusOne,PHX1-PHX8 Phoenix Data Center,"2335 South Ellis Street, Chandler, AZ, USA",33.270841605622,-111.882895087769,
FIBERTOWN,Fibertown Â– Bryan Data Center,"110 N Main St, Bryan, TX, USA",30.674186339916,-96.373680856253,
123NET,Grand Rapids Data Center (DC4),"400 76th St SW, Byron Center, MI 49315, USA",42.8016,-85.7136,49315
Google,"Berkeley County, SC Data Center",200-220 State Road S-8-934,41.367012849286,-85.054098830091,
Amazon AWS,"PDX58 Boardman, OR","73579 Lewis and Clark Drive, Boardman, OR 97818, USA",45.8272,-119.7206,97818
"Meta, Inc.",Fort Worth Data Center,"4500 Like Way, Fort Worth, Texas 76177, USA",32.9448,-97.3124,76177
TierPoint,Oklahoma City 4114 Perimeter Center Data Center,"4114 Perimeter Center Place, Oklahoma City, Oklahoma 73112, USA",35.5184,-97.5746,73112
Amazon AWS,25410 Sutton Bay,"25410 Sutton Bay Plz, South Riding, VA 20152, USA",38.8976,-77.5092,20152
Csquare,Secaucus (NYC3) Data Center,"15 Enterprise Avenue North, Secaucus, NJ, USA",40.786069529497,-74.069127297992,
Amazon AWS,IAD10 Sterling,"45360 West Severn Way, Sterling, VA, USA",40.3307,-84.0926,45360
Csquare,BOS1-A Waltham Data Center,"580 Winter St, Waltham, MA 02451, USA",42.3986,-71.2451,02451
"Meta, Inc.",Eagle Mountain Utah Data Center,"1275 N Community Cir, Eagle Mountain, Utah, USA",40.265547894065,-112.01500201226,
365 Data Centers,TA1 Tampa Data Center,"655 North Franklin Street, Tampa, FL, USA",27.949695819034,-82.458258775276,
Csquare,SEA3-A Lynnwood Data Center,"17300 Hwy 99, Lynnwood, WA 98037, USA",47.8392,-122.2855,98037
"Meta, Inc.",Altoona Iowa Data Center,"100 Share Way Northwest, Altoona, IA, USA",41.66423360429,-93.51453916799,
Microsoft Azure,East Wenatchee,"875 Urban Industrial Wy, East Wenatchee, Washington 98802, USA",47.4186,-120.2731,98802
Amazon AWS,IAD1 (VDC),"4101a Westfax Dr, Chantilly, VA 20151, USA",38.8867,-77.4457,20151
CyrusOne,CIN5 Cincinnati North Cincinnati Data Center,"401 Kingsview Drive, Lebanon, OH, USA",39.388531720912,-84.221539965003,
Vantage Data Centers,AZ1 Phoenix Data Center,"45 South Bullard Avenue, Goodyear, AZ, USA",33.446293195452,-112.373809745709,
Switch Data Centers,Houston 2 Data Center,"660 Greens Parkway, Houston, TX, USA",29.94526569729,-95.424366116256,
Equinix,CU3 Culpeper Data Center,"18155 Technology Drive, Culpeper, VA, USA",38.455925843891,-77.976996534493,18155
Csquare,EWR2-A Weehawken Data Center,"300 J. F. Kennedy Blvd, Weehawken, NJ 07086, USA",40.7681,-74.0208,07086
Crown Castle,Crown Castle Baltimore,"111 Market Place suite 103, Baltimore, Maryland 21202, EE. UU.",39.2998,-76.6075,21202
Equinix,DC14 Manassas Data Center,"7400 Infantry Ridge Road, Manassas, VA, USA",38.803329495156,-77.510879737097,
Digital Realty,Dallas DFW18 Data Center,"1210 Integrity Drive, Richardson, TX, USA",32.965192446935,-96.712945344259,
Google,"Council Bluffs, IA Data Center","1430 Veterans Memorial Hwy, Council Bluffs, IA 51501, USA",41.2324,-95.8751,51501
Csquare,DFW1 Fort Worth Data Center Campus,"14901 FAA Boulevard, Fort Worth, TX, USA",42.1008,-76.812,14901
Digital Realty,Silicon Valley SFO10 Data Center,"200 Paul Avenue, San Francisco, CA, USA",37.724063069431,-122.397798664122,
Digital Realty,Boston BOS16 Data Center,"105 Cabot Street, Needham, MA, USA",42.302296637698,-71.219703923547,
Flexential,Atlanta - Douglasville 1 Data Center,"1700 N River Rd, Douglasville, GA, USA",33.731006162116,-84.615741877172,
Prime Data Centers,Prime Dallas - 1515 Round Table,"1515 Round Table Drive, Dallas, TX, USA",32.838076233323,-96.8782726847,
365 Data Centers,BCA Boca Raton Data Center,"3500 Northwest Boca Raton Boulevard, Boca Raton, FL, USA",26.382305992945,-80.083496961782,
Lumen,Tustin 1 Data Center,"14452 Franklin Avenue, Tustin, CA, USA",43.2448,-78.0911,14452
Digital Realty,Austin AUS11 Data Center,"7500 Metro Center Drive, Austin, TX, USA",30.212244191306,-97.695512267619,
Switch Data Centers,Texas 1 Data Center,"4100 Smith School Rd, Austin, TX, USA",30.198861016053,-97.713808034413,
11:11 Systems,Carlstadt Data Center,"777 Central Blvd, Carlstadt, NJ 07072, USA",40.8403,-74.0925,07072
Apple Inc.,Newark Data Center,"39800 Eureka Drive, Newark, CA, USA",37.509894002001,-122.0024620099,39800
Amazon AWS,IAD15 Sterling,"22631 Dulles Summit Ct, Sterling, VA, USA",38.99167329026,-77.448490633372,22631
Csquare,MSP1 Shakopee Data Center Campus,"4450 Dean Lakes Boulevard, Shakopee, MN, USA",44.779540712377,-93.461483061994,
Lumen,Hayward 1 Data Center,"23965 Connecticut St, Hayward, CA, USA",37.638473528269,-122.129742215448,23965
Lumen,Orlando 1 Data Center,"380 South Lake Destiny Drive, Orlando, FL, USA",28.615886172567,-81.389411641932,
QTS Data Centers,Phoenix Data Center,"1200 North 40th Street, Phoenix, Arizona 85008, USA",33.4665,-111.9984,85008
CyrusOne,AUS3 Austin Data Center,"7100 Metropolis Drive, Austin, TX, USA",30.206928053036,-97.701423353377,
QTS Data Centers,"East Windsor, NJ Data Center","159 Princeton Hightstown Road, East Windsor, New Jersey 08520, USA",40.2669,-74.525,08520
Aligned Data Centers,ORD-01 Chicago,"505 Northwest Avenue, Northlake, IL, USA",41.913510356989,-87.91744612526,
Csquare,TPA1-A Tampa Data Center,"9310 Florida Palm Drive, Tampa, FL 33619, USA",27.9382,-82.3756,33619
Equinix,NY2 Secaucus Data Center,"275 Hartz Way, Secaucus, NJ, USA",40.777442581382,-74.075916974841,
Equinix,DA11 Dallas IBX Data Center,"1990 North Stemmons Freeway, Dallas, TX 75207, U.S.",32.7939,-96.8319,75207
QuadraNet,Miami Data Center,"36 Northeast 2nd Street, Miami, FL, USA",25.775841980137,-80.192962605596,
Lumen,Oklahoma City 1 Data Center,"201 East Robert S Kerr Boulevard, Wynnewood, OK, USA",34.642794281833,-97.169016924983,
365 Data Centers,ATL1 Atlanta Data Center,"55 Marietta Street, Marietta Street NorthWest, Atlanta, GA, USA",33.7555553,-84.3911729,
EdgeConnex,CHI02 Chicago Data Center,"2021 Lunt Avenue, Elk Grove Village, IL, USA",42.001445406117,-87.952603179939,
Element Critical,Houston One Data Center,"22000 Franz Road, Katy, TX, USA",29.802958583367,-95.755739796793,22000
Digital Realty,New York EWR21 Data Center,"2 Peekay Drive, Clifton, NJ, USA",40.830488796733,-74.124420450127,
Amazon AWS,IAD9 Chantilly,"4100 Westfax Drive, Chantilly, VA, USA",38.899109167466,-77.453640642322,
Element Critical,Chicago Two Data Center,"341 Haynes Dr, Wood Dale, IL, USA",41.97402736264,-87.967537719741,
T5 Data Centers,@Charlotte Data Center Campus,"131 Riverside Ct, Kings Mountain, NC, USA",35.250518515357,-81.395021985003,
Digital Realty,Chicago ORD12 Data Center,"9333 Grand Avenue, Franklin Park, IL 60131, USA",41.9339,-87.8734,60131
T5 Data Centers,@Minneapolis Data Center,"1001 3rd Avenue South, Minneapolis, MN, USA",44.971461652299,-93.270291599105,
Microsoft Azure,Lyle Creek Data Center,"1521 N Nc 16 Hwy, Conover, North Carolina 28613, USA",35.7313,-81.2165,28613
CoreSite,MI1 Miami Data Center,"2115 Northwest 22nd Street, Miami, FL, USA",25.797519761043,-80.230064848545,
DataBank,DataBank IAD1 Data Center,"21635 Red Rum Drive, Ashburn, VA, USA",39.3374,-75.8717,21635
Equinix,MI6 Doral Data Center,"1525 Northwest 98th Court, Doral, FL, USA",25.787719095027,-80.354803074316,
US Signal,Grand Rapids East Data Center,"4765 Barden Drive Southeast, Kentwood, MI, USA",42.876723675466,-85.564349603636,
Lumen,Tulsa 1 Data Center,"18 West Archer Street, Tulsa, OK, USA",36.157185000441,-95.993346970525,
Iron Mountain Data Centers,MIA-1 - Miami Data Center,"2925 Northwest 120th Terrace, Miami, FL, USA",25.884939993678,-80.247166026499,
Equinix,LA7 Torrance Data Center,"1501 Francisco Street, Torrance, CA, USA",33.85085392457,-118.304060892344,
11:11 Systems,Carrollton Data Center,"1649 W Frankford Rd, Carrollton, TX 75007, USA",33.0033,-96.882,75007
Cologix,NNJ3 New Jersey Data Center,"200 Webro Road, Parsippany, NJ, USA",40.857129376781,-74.418784004831,
DataBank,Data Bank SLC2 Data Center,"14944 Pony Express Rd, Bluffdale, Salt Lake, UT, USA",40.479820603728,-111.904514530629,14944
Rackspace,NYC1 New York Metro Data Center,"125 Belmont Drive, Somerset, NJ, USA",40.540851503862,-74.537476363842,
365 Data Centers,ATL3 Atlanta Data Center,"56 Marietta Street NorthWest 5th floor, Atlanta, GA, USA",33.755475200599,-84.391527392152,
QTS Data Centers,Piscataway Data Center,"101 Possumtown Road, Piscataway Township, New Jersey 08854, USA",40.5515,-74.459,08854
QTS Data Centers,Ashburn-Broderick Data Center,"22271 Broderick Drive, Sterling, VA, USA",38.999504334759,-77.450152764772,22271
Csquare,Boston (BO1-Watertown) Data Center,"486 Arsenal Way, Watertown, MA, USA",42.366353823974,-71.159309796597,
123NET,Detroit Data Center (DC1),"24700 Northwestern Hwy, Southfield, MI 48075, USA",42.4638,-83.2255,48075
Digital Realty,Atlanta ATL11 Data Center,"101 Aquila Way, Austell, GA 30168, USA",33.7838,-84.5952,30168
Rackspace,DFW3 Dallas Data Center,"1215 Integrity Drive, Richardson, TX, USA",32.964765808063,-96.715879597103,
Digital Realty,Silicon Valley SJC37 Data Center,"641 Walsh Ave, Santa Clara, CA 95050, USA",37.3492,-121.953,95050
Csquare,Los Angeles (LA2-Irvine) Data Center,"2681 Kelvin Ave, Irvine, California, USA",33.68420199197,-117.837534136063,
DataBank,DataBank BWI1 Data Center,"300 West Lexington Street, Baltimore, MD, USA",39.291700035935,-76.620038243299,
365 Data Centers,DT1 Detroit Data Center,"24660 Lahser Road, Southfield, MI, USA",42.469868484172,-83.25989670272,24660
Digital Realty,Miami MIA10 Data Center,"36 Northeast 2nd Street, Miami, FL 33132, USA",25.7867,-80.18,33132
DataBank,DataBank ATL4 Data Center,"200 Selig Dr SW, Atlanta, GA 30336, USA",33.7406,-84.5545,30336
365 Data Centers,NY10 New York City Data Center,"65 Broadway, NY, New York, USA",40.707188109265,-74.012347196235,
Element Critical,Austin One Data Center,"8025 N Interstate Hwy 35, Austin, TX 78753, USA",30.3649,-97.6827,78753
Stack Infrastructure,ATL01 Atlanta Data Center,"3200 Webb Bridge Road, Alpharetta, GA, USA",34.075810920482,-84.264254478861,
Lumen,Sunnyvale 1 Data Center,"1380 Kifer Road, Sunnyvale, CA, USA",37.372335068589,-121.988746869373,
QTS Data Centers,New Albany 1 Data Center,"1235 Beech Road Southwest, New Albany, OH, USA",40.064882324107,-82.756271894442,
Skybox Datacenters,Austin Data Center,"600 New Meister Ln, Pflugerville, Texas 78660, USA",30.4421,-97.6299,78660
123NET,Southfield Data Center NW (DC2),"24275 Northwestern Hwy, Southfield, MI, USA",42.467030497485,-83.234924750046,24275
Csquare,EWR2-D Weehawken Data Center,"1919 Park Ave, Weehawken, NJ 07086, USA",40.7681,-74.0208,07086
Lumen,Orlando 2 Data Center,"510 Columbia St, Orlando, FL, USA",28.527025928966,-81.385167968173,
Stack Infrastructure,CHI01 Chicago Data Center,"1441 Touhy Avenue, Elk Grove Village, IL, USA",42.006706098098,-87.964636575414,
US Signal,10290 W 70th St Data Center,"10290 W 70th St, Eden Prairie, MN 55344, USA",44.8574,-93.4376,55344
Equinix,AT5 Norcross Data Center,"2836 Peterson Place Northwest, Norcross, GA, USA",33.93901557845,-84.227380475135,
QTS Data Centers,Richmond 1 Data Center,"6000 Technology Boulevard, Sandston, VA, USA",37.489664111049,-77.245412961228,
365 Data Centers,CA1 Rancho Cordova Data Center,"11085 Sun Center Drive, Rancho Cordova, CA, USA",38.59597726194,-121.272635534998,11085
365 Data Centers,PA1 Philadelphia Data Center,"1500 Spring Garden Street, Philadelphia, PA, USA",39.962025727128,-75.164044580964,
DataBank,DataBank AUS1 Data Center,"7218 McNeil Drive, Austin, TX, USA",30.435990253666,-97.766053610372,
Lumen,Tampa 1 Data Center,"7909 Woodland Center Boulevard, Tampa, FL, USA",28.018711152495,-82.523641391901,
Csquare,SFO2 Santa Clara Data Center Campus,"4650 Old Ironsides Drive, Santa Clara, CA, USA",37.397585468086,-121.980876094653,
Iron Mountain Data Centers,AZP - 1 - Phoenix Data Center,"615 North 48th Street, Phoenix, AZ, USA",33.455277296461,-111.9762212932,
EdgeConnex,ATL02 Atlanta Data Center,"1101 Donnelly Avenue Southwest, Atlanta, GA 30310, USA",33.7278,-84.4232,30310
365 Data Centers,FTL Fort Lauderdale Data Center,"3250 West Commercial Boulevard, Fort Lauderdale, FL, USA",26.186178008181,-80.190304033547,
Rackspace,NYC2 New York Metro Data Center,"202-216 Campus Drive, Franklin Township, NJ, USA",40.544455847956,-74.53768691725,
Csquare,LAX3 (Los Angeles) Irvine Data Center Campus,"17836 Gillette Avenue, Irvine, CA, USA",40.7101,-76.6271,17836
Flexential,Atlanta - Douglasville 2 Data Center,"1750 N River Rd, Douglasville, Georgia 30122, USA",33.7655,-84.6469,30122
"Meta, Inc.",DeKalb Data Center,"1510 E Gurler Rd, DeKalb, Illinois 60115, USA",41.9008,-88.7548,60115
Microsoft Azure,MNZ01,"11314 Balls Ford Rd building 2, Manassas, Virginia 20109, USA",38.793,-77.5266,20109
QTS Data Centers,Fayetteville Data Center,"1435 Hwy 54 W, Fayetteville, Georgia 30214, USA",33.4679,-84.4806,30214
Aligned Data Centers,ORD-02 Chicago,"501 Northwest Avenue, Northlake, IL, USA",41.913539074248,-87.919291004198,
Digital Realty,Dallas DFW28 Data Center,"850 East Collins Boulevard, Richardson, TX, USA",32.967232895534,-96.713302664791,
Stack Infrastructure,DFW01 Dallas Data Center,"6653 Pinecrest Drive, Plano, TX, USA",33.065053184081,-96.810917303344,
Otava,Mid Michigan Data Center,"5225 Exchange Drive, Flint, MI, USA",42.968670093906,-83.779644017936,
Liquid Web,Lansing Data Center,"4210 Creyts Road, Lansing, MI, USA",42.689656989039,-84.642962023915,
11:11 Systems,Philadelphia Data Center,"401 N Broad St, Philadelphia, PA 19108, USA",39.9598,-75.1616,19108
123NET,Southfield Data Center W (DC3),"24245 Northwestern Hwy, Southfield, MI, USA",36.8242,-82.496,24245
Flexential,Tampa - West Data Center,"9417 Corporate Lake Dr, Tampa, FL 33634, USA",28.0068,-82.556,33634
SBA Edge,Chicago Data Center,"603 Discovery Drive, West Chicago, IL, USA",41.876026905084,-88.248738585156,
US Signal,Detroit Metro Data Center,"9275 Haggerty Rd, Belleville, MI, USA",42.235295266023,-83.44412883904,
US Signal,Detroit North Data Center,"1035 W Entrance Dr, Auburn Hills, MI 48326, USA",42.6583,-83.2375,48326
Equinix,NY6 Secaucus Data Center,"105 Enterprise Avenue South, Secaucus, NJ, USA",40.777424266924,-74.072503780049,
Digital Realty,New York JFK10 Data Center,"111 8th Avenue, New York, NY, USA",40.740844132724,-74.001967047342,
Digital Realty,Dallas DFW14 Data Center,"4849 Alpha Road, Dallas, TX, USA",32.933907999161,-96.827942289798,
CBRE,1001 Brinton Rd Data Center,"1001 Brinton Rd, Pittsburgh, PA, USA",40.429918649807,-79.87235179165,
Digital Realty,Phoenix PHX15 Data Center,"2121 South Price Road, Chandler, AZ, USA",33.274785584432,-111.886933321081,
11:11 Systems,Scottsdale Data Center,"7499 E Paradise Ln, Scottsdale, AZ 85260, USA",33.6013,-111.8867,85260
Prime Data Centers,Prime Chicago - 1701 Midway Ct.,"1701 Midway Ct, Elk Grove Village, IL, USA",42.02490779823,-87.961767589907,
EdgeConnex,DET01 Detroit Data Center,"21005 Lahser Road, Southfield, MI, USA",39.4771,-76.1208,21005
Digital Realty,Northern Virginia IAD44 Data Center,"43704 Efficiency Dr, Dulles, VA 20166, USA",38.9814,-77.4723,20166
Lumen,Dallas 1 Data Center,"3180 Irving Blvd, Dallas, TX, USA",32.807048313695,-96.86855286214,
Lumen,Chicago 2 Data Center,"900 North Kingsbury Street, Chicago, IL, USA",41.898540277918,-87.644499003722,
QTS Data Centers,Atlanta 4 DC1 Data Center,"1103 Herndon Street Northwest, Atlanta, GA, USA",33.784078744143,-84.422781748169,
Flexential,Cincinnati Data Center,"5307 Muhlhauser Rd, Hamilton, West Chester Township, OH 45011, USA",39.4059,-84.5221,45011
LightEdge,Kansas City Data Center,"9050 Northeast Underground Drive, Kansas City, MO, USA",39.160805595648,-94.468883133712,
Edged,Edged Chicago Data Center,"2835 Bilter Road, Aurora, IL 60502, USA",41.7845,-88.2616,60502
Csquare,Phoenix ( PHX1 - Mesa) Data Center,"1301 West University Drive, Mesa, AZ, USA",33.421641557208,-111.858606344023,
Equinix,LA4 El Segundo Data Center,"445 North Douglas Street, El Segundo, CA, USA",33.921760131569,-118.384113432087,
Iron Mountain Data Centers,NJE - 1 - New Jersey Data Center,"3003 Woodbridge Avenue, Edison, NJ, USA",40.520852492433,-74.347215962758,
Telehouse,New York Teleport Data Center,"7 Teleport Drive, Staten Island, NY, USA",40.606564786568,-74.175174634054,
Cologix,COL3 Columbus Data Center,"585 Scherers Court, Columbus, OH, USA",40.115847187171,-83.000949203503,
Ark data centers (Iowa),Cedar Rapids Data Center,"5055 Rec Drive, Marion, IA, USA",42.052868759284,-91.554278392137,
Amazon AWS,5117 Hayden Run,"5117 Hayden Run Rd, Hilliard, OH 43026, USA",40.0322,-83.1383,43026
365 Data Centers,PH2 Philadelphia Data Center,"3701 Market, Market Street, Philadelphia, PA, USA",39.956845794784,-75.196055236829,
Digital Realty,Silicon Valley SJC14 Data Center,"1500 Space Park Drive, Santa Clara, CA 95054, USA",37.3924,-121.9623,95054
US Signal,Grand Rapids South Data Center,"400 76th St SW, Byron Center, MI, USA",42.825444658671,-85.672769353573,
Equinix,DC7 Vienna Data Center,"7990 Science Applications Court, Vienna, VA, USA",38.908959119073,-77.220804028782,
365 Data Centers,GA2 Smyrna Data Center,"5600 United Drive Southeast, Smyrna, GA, USA",33.84131498348,-84.522538969537,
Flexential,Minneapolis - Chaska Data Center,"3500 Lyman Blvd, Chaska, MN 55318, USA",44.8061,-93.6083,55318
QTS Data Centers,Fort Worth - Dallas Data Center,"14100 Park Vista Boulevard, Fort Worth, TX, USA",32.988861977583,-97.259193638926,14100
11:11 Systems,Los Angeles Data Center,"900 N Alameda St, Los Angeles, CA 90012, USA",34.0614,-118.2385,90012
Ark data centers (Iowa),Akron Data Center,"191 East Miller Avenue, Akron, OH, USA",41.057369020329,-81.521720989385,
Digital Realty,Chicago ORD23 Data Center,"505 North Railroad Avenue, Northlake, IL, USA",41.919925698042,-87.912226295058,
Bluebird Data Centers,Bluebird Underground Data Center,"1904 Le Compte Rd, Springfield, MO, USA",37.230334974069,-93.215659135153,
Csquare,SEA1 Tukwila Data Center Campus,"12301 Tukwila International Boulevard, Tukwila, WA, USA",42.8142,-73.9396,12301
T5 Data Centers,@Atlanta III Data Center,"1546 Trae Lane, Lithia Springs, GA, USA",33.763608407528,-84.606148929613,
DataBank,DFW2 - North Dallas Data Center,"904 Quality Way, Richardson, TX, USA",32.966163532327,-96.71116972189,
365 Data Centers,CH1 Chicago Data Center,"350 East Cermak Road suite 240, Chicago, IL, USA",41.853685864179,-87.618359200479,
Csquare,EWR3 Piscataway Data Center Campus,"3 Corporate Place, Piscataway, NJ, USA",40.554252993574,-74.458643977744,
Flexential,Charlotte - South Data Center,"8910 Lenox Pointe Drive, Charlotte, NC, USA",35.135415077738,-80.936958436359,
Flexential,Tampa - North Data Center,"8350 Parkedge Dr, Tampa, FL 33637, USA",28.0338,-82.3659,33637
Keystone Nap,Keystone NAP,"150 Roebling Rd, Fairless Hills, PA, USA",40.155081276166,-74.74158417129,
Provision Data Services,2020 Live Oak St Data Center,"2020 Live Oak Street, Dallas, TX, USA",32.783734469108,-96.794599330423,
Csquare,ATL1-B Lithia Springs Data Center,"375 Riverside Pkwy ste 150, Lithia Springs, GA 30122, USA",33.7655,-84.6469,30122
ManagedWay,Detroit Data Center TYM2,"600 Executive Drive, Troy, MI, USA",42.540607807478,-83.098441550088,
CyrusOne,DUR1 Raleigh-Durham Data Center,"2223 Northeast Creek Parkway, Durham, NC, USA",35.934685201354,-78.880789912716,
Telesystem,DC-2 Michigan Data Center,"1240 Huber Drive, Monroe, MI, USA",41.936935932346,-83.404061162567,
"Meta, Inc.",Mesa Data Center,"3841 S Ellsworth Rd, Mesa, Arizona 85212, USA",33.3425,-111.6353,85212
Microsoft Azure,Columbia Data Center,"1515 Port Industrial Way, Quincy, Washington 98848, USA",47.1976,-119.8459,98848
"Meta, Inc.",Gallatin Data Centers,"1 Meta Lp, Gallatin, Tennessee 37066, USA",36.3834,-86.4512,37066
Equinix,CH7 Westmont Data Center,"111 Plaza Drive, Westmont, IL, USA",41.812574598851,-87.97288076392,
Lumen,Wilmington 1 Data Center,"1603 Jessup Street, Wilmington, DE, USA",39.74950898427,-75.538837777236,
Vantage Data Centers,CA1 Santa Clara Data Center Campus,"2820 Northwestern Parkway, Santa Clara, CA, USA",37.372433011128,-121.97340899239,
Equinix,LA3 El Segundo Data Center,"1920 East Maple Avenue, El Segundo, CA, USA",33.926081924665,-118.394135589895,
Prime Data Centers,Prime Los Angeles - 4701 S. Santa Fe,"4701 South Santa Fe Avenue, Vernon, CA, USA",34.001129127108,-118.231143866773,
Equinix,SV10 San Jose Data Center,"7 Great Oaks Boulevard, San Jose, CA, USA",37.240935492907,-121.784614586171,
CyrusOne,CIN2 Cincinnati 7th Street Data Center,"229 West 7th Street, Cincinnati, OH, USA",39.102713390767,-84.51791157225,
DataVerge,Brooklyn Data Center,"882 3rd Avenue, Brooklyn, NY, USA",40.65776522302,-74.004562336022,
Iron Mountain Data Centers,AZP - 3 - Phoenix Data Center,"4802 East Van Buren Street, Phoenix, AZ, USA",33.452430927871,-111.977523673315,
Lumen,Santa Clara 1 Data Center,"3045 Raymond Street, Santa Clara, CA, USA",37.377143682622,-121.952397908062,
Cologix,MIN4 Minneapolis Data Center,"511 11th Ave S, Minneapolis, MN, USA",44.971489228761,-93.254769068796,
Equinix,DC12 Ashburn Data Center,"44790 Performance Circle, Ashburn, VA, USA",39.023017626732,-77.449782955204,44790
Zenlayer,CHI2 Chicago Data Center,"9377 Grand Ave, Franklin Park, IL 60131, USA",41.9339,-87.8734,60131
CyrusOne,NYM5 Norwalk Data Center,"6 Norden Place, Norwalk, CT, USA",41.111265024859,-73.397045010985,
Csquare,CMH1 (Columbus) Lewis Center Data Center Campus,"8180 Green Meadows Dr, Lewis Center, OH, USA",40.168866077517,-83.010779918642,
Whitelabel IT Solutions,150 Atlantic Street Data Center,"159 Atlantic Street, Hackensack, NJ, USA",40.883075661176,-74.050384946172,
Lumen,Sacramento 1 Data Center,"1075 Triangle Court, West Sacramento, CA, USA",38.586978827876,-121.530425744844,
Lumen,Raleigh 1 Data Center,"5301 Departure Drive, Raleigh, NC, USA",35.854363979704,-78.59688655408,
Csquare,Washington DC (WDC1-Ashburn) Data Center,"21571 Beaumeade Cir, Ashburn, VA, USA",39.022189829975,-77.453582639552,21571
"Meta, Inc.",Kansas City Data Center,"801 NW 128 St, Kansas City, Missouri 64165, USA",39.3113,-94.5431,64165
Flexential,Phoenix - Deer Valley Data Center,"1850 W Deer Valley Rd, Phoenix, AZ 85027, USA",33.6819,-112.0996,85027
Stack Infrastructure,SVY01 - Silicon Valley Data Center,"2001 Fortune Dr, San Jose, CA, USA",37.402257918102,-121.89238574444,
CyrusOne,NYM2 Totowa Data Center,"50 Madison Road, Totowa, NJ, USA",40.907192011786,-74.242284006552,
365 Data Centers,NJ1 Bridgewater New Jersey Data Center,"999 Frontier Road, Bridgewater, NJ, USA",40.581523431736,-74.5737779674,
365 Data Centers,GA1 Alpharetta Data Center,"11650 Great Oaks Way, Alpharetta, GA, USA",34.063410691015,-84.272716680669,11650
Amazon AWS,20945 Loudoun County Pkwy,"20945 Loudoun County Pkwy, Ashburn, VA 20147, USA",39.0373,-77.4805,20147
Csquare,DEN2 (Denver) Englewood Data Center Campus,"8534 Concord Center Drive, Englewood, CO, USA",39.560803510044,-104.830691583841,
Digital Realty,New York EWR20 Data Center,"100 Delawanna Avenue, Clifton, NJ, USA",40.829938734337,-74.126757995285,
Digital Realty,Chicago CH1 Data Center,"2200 Busse Rd, Elk Grove Village, IL, USA",41.994254319926,-87.960598090645,
Stream Data Centers,Phoenix I-VI Goodyear Campus,"2950 South Litchfield Road, Goodyear, AZ, USA",33.419882028094,-112.359971475024,
365 Data Centers,CH6 Chicago Data Center,"427 South LaSalle Street, Chicago, IL, USA",41.876152633632,-87.631468161769,
QuadraNet,Atlanta Data Center,"55 Marietta Street NorthWest, Atlanta, GA, USA",33.75589924108,-84.391047863472,
Cologix,COL4 Columbus Data Center,"7500 Alta View Boulevard, Columbus, OH, USA",40.118440170828,-82.999998192769,
Vantage Data Centers,WA1 Quincy Data Center Campus,"2101 M Street Northeast, Quincy, WA, USA",47.250188187347,-119.814421171236,
Lumen,Weehawken 1 Data Center,"300 Boulevard East, Weehawken, NJ, USA",40.762775210176,-74.024910149891,
Csquare,Seattle (SE1-Lynnwood) Data Center,"17300 Hwy 99, Lynnwood, Washington, USA",47.841815016159,-122.301682961314,17300
Equinix,BO2 Billerica Data Center,"41 Alexander Street, Billerica, MA, USA",42.550739852037,-71.215315326683,
ValorC3,Oklahoma City Data Center,"4442 Newcastle Rd, Oklahoma City, OK, USA",35.424910758354,-97.599752376601,
CyrusOne,AUS2 Austin Data Center,"7301 Metropolis Drive, Austin, TX, USA",30.205968953765,-97.697926758648,
ManagedWay,Detroit Data Center TYM1,"319 Executive Drive, Troy, MI, USA",42.537161546078,-83.099859935744,
Digital Realty,Northern Virginia IAD39 Data Center,"44274 Round Table Plaza bldg l, Ashburn, VA 20147, USA",39.0373,-77.4805,20147
Summit,Chicago Data Center,"350 E Cermak Rd, Chicago, IL, USA",41.853685864179,-87.618359200479,
GIGA Data Centers,CLT-1 Data Center,"1035 Mecklenburg Hwy, Mooresville, NC, USA",35.564078220895,-80.828453107191,
Csquare,DEN1 (Denver) Highlands Ranch Data Center Campus,"9180 Commerce Center Circle, Highlands Ranch, CO, USA",39.550046678423,-105.033444373418,
Stream Data Centers,Chicago II Data Center,"1925 Busse Road, Elk Grove Village, IL, USA",41.999414890073,-87.957945050652,
Stack Infrastructure,POR02 - Portland Data Center,"21515 NW Evergreen Pkwy, Hillsboro, OR, USA",45.546453001698,-122.903302485544,21515
Aligned Data Centers,"Phoenix, AZ Data Center","2500 West Union Hills Drive, Phoenix, AZ, USA",33.658560199504,-112.111166665382,
Zenlayer,NYC4 New York City Data Center,"2 Emerson Ln, Secaucus, NJ 07094, USA",40.791,-74.0634,07094
Amazon AWS,Industrial Parkway Campus,"8619 Industrial Parkway, Plain City, Ohio 43064, USA",40.0974,-83.269,43064
Iron Mountain Data Centers,WPA - 1 - W. Pennsylvania & Pittsburgh Data Center,"1137 Branchton Road, Boyers, PA, USA",41.09213459822,-79.912169184495,
Digital Realty,Atlanta ATL14 Data Center,"250 Williams Street Northwest, Atlanta, GA, USA",33.761720305198,-84.391312731612,
Digital Realty,New York EWR11 Data Center,"3 Corporate Place, Piscataway Township, NJ, USA",40.554252993574,-74.458643977744,
Otava,Metro Detroit Data Center,"6435 North Hix Road, Westland, MI, USA",42.331079674108,-83.419523007897,
CyrusOne,CIN6 Florence Data Center,"7200 Industrial Road, Florence, KY 41042, USA",38.9941,-84.642,41042
Equinix,DC3 Ashburn Data Center,"44470 Chilum Place, Ashburn, VA, USA",41.2983,-80.9485,44470
Stack Infrastructure,NVA01 - Northern Virginia Data Center,"22080 Pacific Blvd, Ashburn, VA, USA",39.004722656219,-77.441801790819,22080
Rackspace,MCI1 Kansas City Data Center,"10828 North Airworld Drive, Kansas City, MO, USA",39.290287615086,-94.674994400234,10828
Digital Realty,Phoenix PHX10 Data Center,"120 East Van Buren Street, Phoenix, AZ, USA",33.451900060033,-112.07190306488,
NTT Global Data Centers,TX1 Dallas Data Center,"2008 Lookout Dr, Garland, TX 75044, USA",32.9522,-96.6654,75044
TRG Datacenters,HOU1 Houston Data Center,"2626 Spring Cypress Road, Houston, TX, USA",30.065832151783,-95.456514631221,
HostDime,Orlando Data Center (Coming 2024),"980 Wymore Road, Eatonville, FL, USA",28.608970831409,-81.384821659017,
CyrusOne,NYM10 Stamford Data Center,"10 Riverbend Drive South, Stamford, CT, USA",41.084017898461,-73.517927561662,
Iron Mountain Data Centers,DEN - 1 - Denver Data Center,"4300 Brighton Blvd, Denver, CO, USA",39.777431827866,-104.968356632147,
1547 Critical Systems Realty,ORNY1 Orangeburg Data Center,"1 Ramland Road South, Orangeburg, NY, USA",41.033873443177,-73.971860217777,
Digital Realty,Northern Virginia IAD36 Data Center,"43780 Digital Loudoun Plaza bldg h, Ashburn, VA, USA",39.9337,-81.458,43780
CyrusOne,NVA5 Northern Virginia Sterling Data Center,"21350 Pacific Blvd, Sterling, VA, USA",39.024382577755,-77.433472274539,21350
TierPoint,Valley Forge Data Center,"1000 Adams Avenue, Norristown, PA, USA",40.121854748634,-75.420524364067,
DataBank,LGA3 - Orangeburg Data Center,"2000 Corporate Drive, Orangeburg, NY, USA",41.039806670062,-73.989526291373,
Csquare,SEA2 Tukwila Data Center Campus,"6101 South 180th Street, Tukwila, WA, USA",47.440711989738,-122.256498803504,
Amazon AWS,"PDX50 Boardman, OR","73577 Lewis and Clark Drive, Boardman, OR 97818, USA",45.8272,-119.7206,97818
365 Data Centers,NJ3 Carlstadt Data Center,"410 Commerce Boulevard, Carlstadt, NJ, USA",40.828571143015,-74.049594613747,
TierPoint,Allentown - TekPark Data Center,"9999 Hamilton Boulevard, Breinigsville, PA, USA",40.544615439393,-75.654987821195,
OVHCloud,HIL1 Data Center,"1300 NE 25th Ave, Hillsboro, Oregon 97124, USA",45.5387,-122.9636,97124
Cologix,COL1 Columbus Data Center,"535 Scherers Court, Columbus, OH, USA",40.116202537956,-83.002350909171,
Equinix,HO1 Houston Data Center,"1515 Aldine Meadows Road, Houston, TX, USA",29.935793308511,-95.36428153299,
CoreSite,NY2 New Jersey Secaucus Data Center,"2 Emerson Lane, Secaucus, NJ, USA",40.784297888532,-74.065236921453,
EdgeConnex,BOS01 Boston Data Center,"22 Linnell Circle, Billerica, MA 01821, USA",42.5519,-71.2518,01821
Flexential,Philadelphia - Collegeville Data Center,"101 Troutman Road, Collegeville, PA, USA",40.151858315874,-75.476947815845,
Flexential,Charlotte - North Data Center,"10105 David Taylor Drive, Charlotte, NC, USA",40.7628,-73.9785,10105
Flexential,Portland - Hillsboro 2 Data Center,"5737 NE Huffman St, Hillsboro, OR 97124, USA",45.5387,-122.9636,97124
EdgeConnex,ATL01 Atlanta Data Center,"1003 Donnelly Avenue Southwest, Atlanta, GA 30310, USA",33.7278,-84.4232,30310
Otava,Ann Arbor 2 Data Center,"5340 Data Court, Ann Arbor, MI, USA",42.212706301311,-83.745175148456,
EdgeConnex,CHI01 Chicago Data Center,"1800 Nicholas Boulevard, Elk Grove Village, IL, USA",42.00078202039,-87.950667966134,
Csquare,ATL1-D Lithia Springs Data Center,"375 Riverside Pkwy suite 100, Lithia Springs, GA 30122, USA",33.7655,-84.6469,30122
CyrusOne,DFW3 Dallas Data Center,"2300 Chelsea Boulevard, Allen, TX, USA",33.140571030388,-96.660308584878,
US Signal,5515 Nobel Dr Data Center,"5515 Nobel Dr, Fitchburg, WI 53711, USA",43.0356,-89.4526,53711
LightEdge,Austin I Data Center,"2916 Montopolis Dr, Austin, TX 78741, USA",30.2315,-97.7223,78741
Aligned Data Centers,SLC-01 Salt Lake City,"3333 West 9000 South, West Jordan, UT, USA",40.586192026076,-111.969717774526,
US Signal,Southfield Data Center,"21648 Melrose Avenue, Southfield, MI, USA",38.4782,-76.2412,21648
DataBridge Sites,Aurora/Chicago Data Center,"4267 Meridian Parkway, Aurora, Illinois, USA",41.772087533852,-88.217006292295,
Expedient,Indianapolis Carmel Data Center,"701 Congressional Blvd, Carmel, IN, USA",39.96311805675,-86.144468079388,
DataBank,111 Market Pl Data Center,"111 Market Pl, Baltimore, Maryland 21202, USA",39.2998,-76.6075,21202
Expedient,Memphis Data Center,"3180 Players Ln, Memphis, TN, USA",35.063040235575,-89.786136788216,
SBA Edge,Jacksonville Data Center,"421 West Church Street, Jacksonville, FL, USA",30.331427017381,-81.662437385722,
T5 Data Centers,@Portland Data Center,"4915 NE Starr Blvd, Hillsboro, OR 97124, USA",45.5387,-122.9636,97124
DSM,Lakeland Data Center,"6810 New Tampa Hwy, Lakeland, FL, USA",28.029378842576,-82.045357591494,
DataBank,DataBank ATL3 Data Center,"1150 White Street Southwest, Atlanta, GA, USA",33.734248952816,-84.426470959758,
Microsoft Azure,Boydton - Virginia,"925 Ridge Rd, Boydton, Virginia 23917, USA",36.6544,-78.3752,23917
Lumen,Stamford 1 Data Center,"21 Harborview Avenue, Stamford, CT, USA",41.047751666535,-73.530936443028,
Amazon AWS,22945 International Dr,"22945 International Dr, Sterling, VA 20166, USA",38.9814,-77.4723,20166
Netrality Data Centers,210 North Tucker St. Louis Data Center,"210 North Tucker Boulevard, St. Louis, MO, USA",38.629298009271,-90.197304007689,
CBRE,4442 Newcastle Rd Data Center,"4442 Newcastle Rd, Oklahoma City, Oklahoma, USA",35.424910758354,-97.599752376601,
Csquare,IAD1 Sterling Data Center Campus,"45901 Nokes Boulevard, Sterling, VA, USA",39.023330732725,-77.413168874296,45901
Csquare,IAD2 Sterling Data Center Campus,"22810 International Drive, Sterling, VA, USA",38.8089,-78.7776,22810
Amazon AWS,IAD50 Ashburn,"21271 Smith Switch Road, Ashburn, VA, USA",39.029558528694,-77.459527839655,21271
TierPoint,Baltimore Data Center,"1401 Russell Street, Baltimore, MD, USA",39.27539367195,-76.625804992684,
NTT Global Data Centers,CH1 Chicago Data Center,"255 Pierce Rd, Itasca, IL 60143, USA",41.972,-88.0202,60143
Lumen,Kansas City 2 Data Center,"1212 East 19th Street, Kansas City, MO, USA",39.090496096337,-94.568295439039,
QuadraNet,New Jersey Data Center,"110 Meadowlands Pkwy, Secaucus, NJ, USA",40.786089897522,-74.074397922528,
Microsoft Azure,41700 Inclusion Ln,"41700 Inclusion Ln building 1, Leesburg, Virginia 20175, USA",39.042,-77.6054,20175
Serverfarm,ATL2 Atlanta Data Center,"305 Satellite Boulevard, Suwanee, GA, USA",34.039019789486,-84.041911675846,
DartPoints,Spartanburg Data Center,"5700 N Blackstock Rd, Spartanburg, SC 29303, USA",34.9803,-81.9168,29303
Digital Realty,Chicago CH2 Data Center,"2299 Busse Road, Elk Grove Village, IL, USA",41.994139906948,-87.958342520501,
Otava,Ann Arbor Data Center,"640 Avis Drive, Ann Arbor, MI, USA",42.211985863844,-83.741080222531,
Digital Realty,Los Angeles LAX10 Data Center,"600 West 7th Street, Los Angeles, CA, USA",34.047284873224,-118.256858958982,
Expedient,Columbus - Dublin Data Center,"5700 Innovation Drive, Dublin, OH, USA",40.092166005677,-83.143683962125,
Edged,Edged Columbus Data Center,"6525 New Albany Road East, New Albany, OH, USA",40.106102009353,-82.815691960424,
Cogent Communications,DTW02 - FNSI - Detroit Data Center,"3331 W Big Beaver Rd, Troy, MI, USA",42.559654173702,-83.192687585574,
Segra,Winston-Salem Data Center,"3310 Old Lexington Road, Winston-Salem, NC, USA",36.055819418307,-80.226527182491,
HorizonIQ,New Jersey 1 Data Center,"1 Enterprise Avenue North, Secaucus, NJ, USA",40.787485777767,-74.06806707106,
Switch Data Centers,Texas 2 Data Center,"4100 Smith School Road, Austin, TX, USA",30.198861016053,-97.713808034413,
Lumen,Minneapolis 1 Data Center,"511 11th Avenue South, Minneapolis, MN, USA",44.971489228761,-93.254769068796,
Digital Realty,Houston IAH10 Data Center,"12001 North Freeway, Houston, TX 77060, USA",29.9335,-95.3981,77060
Digital Realty,New York EWR12 Data Center,"365 South Randolphville Road, Piscataway, NJ, USA",40.55279898483,-74.45938099849,
1547 Critical Systems Realty,MIWI1 Wells Building Data Center,"324 East Wisconsin Avenue, Milwaukee, WI, USA",43.039119990095,-87.906765988053,
Digital Realty,Silicon Valley SC1 Data Center,"2220 De La Cruz Boulevard, Santa Clara, CA, USA",37.361747383774,-121.943421979408,
Summit,Georgia Data Center,"12655 Edison Dr, Alpharetta, GA 30022, USA",34.0268,-84.2422,30022
Cogent Communications,Boca Raton Data Center,"5050 Conference Way North, Boca Raton, FL, USA",26.392546415512,-80.109772970951,
Stream Data Centers,Minneapolis II - Chaska Data Center,"1706 West Creek Lane, Chaska, MN, USA",44.80730882604,-93.63679039927,
Amazon AWS,22370 Kipper,"22370 Kipper Dr, Dulles, VA 20166, USA",38.9814,-77.4723,20166
Amazon AWS,Warner Campus,"8567 Warner Road, Plain City, Ohio 43064, USA",40.0974,-83.269,43064
Google,Lancaster Data Center,"105 Whiley Rd, Lancaster, Ohio 43130, USA",39.7187,-82.6031,43130
Lincoln Rackhouse,Kansas City Data Center,"11155 N Airworld Dr, Kansas City, MO, USA",39.295571300371,-94.676062801788,11155
Amazon AWS,Penney Campus,"976-994 E Penney Ave, Hermiston, Oregon 97838, USA",45.845,-119.2849,97838
H5 Data Centers,Cleveland Data Center,"1625 Rockwell Avenue, Cleveland, OH, USA",41.506474158497,-81.683300361821,
Equinix,MI3 Boca Raton Data Center,"4680 Conference Way South, Boca Raton, FL, USA",26.388956781658,-80.108936205557,
QTS Data Centers,Miami Data Center,"11234 Northwest 20th Street, Miami, FL, USA",40.6205,-73.9239,11234
TierPoint,Raleigh - RTP Data Center,"99 TW Alexander Drive, Durham, NC 27709, USA",36.0512,-78.8577,27709
RACK59 Data Center,Oklahoma Data Center,"7725 West Reno Avenue, Oklahoma City, Oklahoma, USA",35.604395552354,-97.349106817203,
Csquare,EWR5-A Secaucus Data Center,"15 Enterprise Ave N, Secaucus, NJ 07094, USA",40.791,-74.0634,07094
Csquare,PHX3-A Mesa Data Center,"1301 West University Drive, Mesa, AZ 85201, USA",33.4317,-111.8469,85201
365 Data Centers,NA1 Nashville Data Center,"147 4th Avenue North, Nashville, TN, USA",36.162575150916,-86.778643376557,
DataBridge Sites,"Silver Spring/Washington, D.C. Data Center","12401 Prosperity Drive, Silver Spring, MD, USA",41.9697,-74.0668,12401
Netrality Data Centers,KC1 - 1102 Grand Kansas City Data Center,"1102 Grand Blvd, Kansas City, MO, USA",39.100862876093,-94.581260063956,
QTS Data Centers,Ashburn-Moran Data Center,"44874 Moran Road, Sterling, Virginia 20166, USA",38.9814,-77.4723,20166
TierPoint,Tulsa - Archer Data Center,"322 East Archer Street, Tulsa, OK, USA",36.158439980894,-95.989244028921,
Microsoft Azure,Creek Campus - Virginia,"19515 Compass Creek Parkway, Leesburg, Virginia 20175, USA",39.042,-77.6054,20175
Irongate,28201 Van Dyke Avenue,"28201 Van Dyke Avenue, Warren, MI, USA",35.26,-80.8042,28201
FirstLight,Boston Data Center,"70 Inner Belt Road, Somerville, MA, USA",42.376706103038,-71.079773749728,
Amazon AWS,Lewis and Clark East Campus,"75300 Lewis and Clark Dr, Boardman, OR 97818, USA",45.8272,-119.7206,97818
Csquare,"Nashville (Gallatin, TN)","1398 Gateway Drive, Gallatin, TN, USA",36.409294794504,-86.386724359536,
Latitude.sh,Miami,"36 NE 2nd St ste 400, Miami, FL, USA",25.775841980137,-80.192962605596,
Csquare,BOS1-B Waltham Data Center,"115 Second Ave, Waltham, MA 02451, USA",42.3986,-71.2451,02451
CyrusOne,NYM7 Wappingers Falls Data Center,"155 Myers Corners Rd, Wappingers Falls, NY, USA",41.599051776155,-73.882222005111,
CyrusOne,NVA9 Northern Virginia Data Center,"43290 Old Ox Road, Sterling, VA 20166, USA",38.9814,-77.4723,20166
1547 Critical Systems Realty,PTOR1 Portland Data Center,"921 Southwest Washington Street, Portland, OR, USA",45.521545128674,-122.680702732262,
Csquare,ORD4-A Lisle Data Center,"4513 Western Ave, Lisle, IL 60532, USA",41.7862,-88.0879,60532
Amazon AWS,11150 Thomasson Barn,"11150 Thomasson Barn Road, Manassas, VA, USA",38.744060764436,-77.529096965459,11150
CenterServ,Tulsa Data Center,"321 South Boston Avenue, Tulsa, OK, USA",36.153232011084,-95.989187031979,
365 Data Centers,CH3 Chicago Data Center,"725 South Wells Street, Chicago, IL, USA",41.872621086367,-87.633299439975,
COPT Defense Properties,"1000 Redstone Gateway SW, Huntsville","1000 Redstone Gateway Southwest, Huntsville, AL 35808, USA",34.6845,-86.6538,35808
Rackspace,SJC2 San Jose Data Center,"150 South 1st Street, San Jose, CA, USA",37.333896331179,-121.888139472291,
DataBank,ORD4 Chicago Tri-State Data Center,"1808 Swift Drive, Oak Brook, IL, USA",41.853907816975,-87.921045314484,
QTS Data Centers,Glendale Data Center,"4001 N 159th Ave, Surprise, Arizona, USA",33.636876923926,-112.400983406826,
Summit,Cleveland Data Center,"1625 Rockwell Ave, Cleveland, Ohio, USA",41.506474158497,-81.683300361821,
TierPoint,Tulsa - State Farm Data Center,"12151 East State Farm Boulevard South, Tulsa, OK, USA",42.9247,-73.7859,12151
Switch Data Centers,Austin 1 Data Center,"7401 East Ben White Boulevard, Austin, TX, USA",30.215063779715,-97.695133573234,
QTS Data Centers,Hillsboro 2 Data Center,"4755 Northeast Huffman Street, Hillsboro, OR 97124, EE. UU.",45.5387,-122.9636,97124
US Signal,8675 Concord Center Dr Data Center,"8675 Concord Center Dr, Englewood, CO 80112, USA",39.5805,-104.9011,80112
NTT Global Data Centers,VA1 Ashburn Data Center,"44664 Guilford Drive, Ashburn, VA, USA",39.022891018085,-77.454918714918,44664
Flexential,Denver - Aurora Data Center,"11900 East Cornell Avenue, Aurora, CO, USA",39.660968175,-104.850186968618,11900
QTS Data Centers,Denver Data Center,"1160 N Gun Club Rd, Aurora, Colorado 80018, USA",39.7102,-104.7071,80018
Everstream,East Lansing Data Center,"1515 Turf Ln, East Lansing, MI 48823, USA",42.7388,-84.4764,48823
PhoenixNAP,Atlanta Data Center,"1130 Powers Ferry Place, Marietta, GA, USA",33.925313052687,-84.481677862109,
Lumen,Memphis 1 Data Center,"3993 Crowfarn Drive, Memphis, TN, USA",35.028860343168,-89.930722773974,
Csquare,BOS1 Waltham Data Center Campus,"580 Winter Street, Waltham, MA, USA",42.39656467568,-71.267664838241,
Aligned Data Centers,IAD01 Ashburn Data Center,"21890 Uunet Drive, Ashburn, VA, USA",38.0927,-75.8882,21890
Verizon,Verizon Detroit 2,"21555 Melrose Ave, Southfield, Michigan 48075, USA",42.4638,-83.2255,48075
Flexential,Salt Lake City - Downtown Data Center,"572 Delong St suite 100, Salt Lake City, UT 84104, USA",40.7499,-111.926,84104
QTS Data Centers,Colorado Springs Data Center,"311 S Rockrimmon Blvd, Colorado Springs, CO 80919, EE. UU.",38.9268,-104.8464,80919
iTel Networks Inc.,Detroit Clay St Data Center,"1545 Clay Street, Detroit, MI, USA",42.379799737772,-83.061076702113,
365 Data Centers,CO1 Aurora Data Center,"3431 North Windsor Drive, Aurora, CO, USA",39.762737136224,-104.762149324996,
Cologix,COL2 Columbus Data Center,"555 Scherers Court, Columbus, OH, USA",40.115745556595,-83.002335318831,
Iron Mountain Data Centers,AZS - 1 - Scottsdale Data Center,"8521 East Princess Drive, Scottsdale, AZ, USA",33.644574365413,-111.895711855914,
TierPoint,Nashville Data Center,"311 Eddy Lane, Franklin, TN, USA",35.924562460708,-86.855852355648,
Lumen,Houston 1 Data Center,"12001 North Freeway, Houston, TX, USA",29.942775014761,-95.416588967394,12001
DataBank,ORD3 Mount Prospect Data Center,"800 East Business Center Drive, Mount Prospect, IL, USA",42.078163666687,-87.923522502148,
Csquare,IAD3 Sterling Data Center Campus,"22860 International Drive, Sterling, VA, USA",38.983652144197,-77.424092924885,22860
Flexential,Portland - Hillsboro 1 Data Center,"3935 NE Aloclek Dr, Hillsboro, OR 97124, USA",45.5387,-122.9636,97124
TierPoint,Oklahoma City 4121 Perimeter Center Data Center,"4121 Perimeter Center Place, Oklahoma City, OK, USA",35.514299019945,-97.596970003842,
Csquare,ORD2-A Elk Grove Village Data Center,"2425 Busse Rd, Elk Grove Village, IL 60007, USA",42.0076,-87.9931,60007
DataBank,MCI1 - South Lake Data Center,"15721 College Blvd, Lenexa, KS, USA",40.8134,-78.7865,15721
Atlantic.net,Orlando Data Center,"440 West Kennedy Boulevard, Orlando, FL, USA",28.617533761364,-81.393501675405,
CyrusOne,OCB1 Omaha-Council Bluffs IA,"4700 Gifford Road, Council Bluffs, IA, USA",41.212192578806,-95.877553744185,
Microsoft Azure,42031 Growth Mindset,"42031 Growth Mindset Lane, Stone Ridge, Virginia 20105, USA",38.9577,-77.6038,20105
Equinix,NY1 Newark Data Center,"165 Halsey Street, Newark, NJ, USA",40.73665200767,-74.173977027728,
Everstream,Grand Rapids Data Center,"3950 Sparks Drive Southeast, Grand Rapids, MI, USA",42.914907686838,-85.569463654221,
Amazon AWS,PDX92,"79388 Olson Rd, Boardman, OR 97818, USA",45.8272,-119.7206,97818
LightEdge,Raleigh Data Center,"8020 Arco Corporate Dr, Raleigh, NC 27617, USA",35.9034,-78.7447,27617
Latitude.sh,New York,"60 Hudson St rm 1215, Trenton, NJ, USA",40.215642042558,-74.752141849488,
DataBank,EWR2 - Piscataway Data Center,"25 Corporate Place South, Piscataway, NJ, USA",40.549212871375,-74.458204598379,
Equinix,DE2 Englewood Data Center,"335 Inverness Drive South, Englewood, CO, USA",39.560351474006,-104.857519541335,
Bell Canada,Bell Canada 1545 Clay St,"1545 Clay Street, Detroit, MI 48211, USA",42.3809,-83.0409,48211
Equinix,SV4 Sunnyvale Data Center,"255 Caspian Drive, Sunnyvale, CA, USA",37.414635055426,-122.014536895796,
Amazon AWS,6675 Crosby Court,"6675 Crosby Court, Dublin, Ohio 43016, USA",40.0985,-83.1537,43016
Digital Realty,Chicago ORD011 Data Center,"600 South Federal Street, Chicago, IL, USA",41.874155729019,-87.629937290973,
Cogent Communications,Akron Data Center,"120 N Broadway St, Akron, Ohio 44304, USA",41.0814,-81.519,44304
Digital Realty,Portland PDX10 Data Center,"3825 Northwest Aloclek Place, Hillsboro, OR, USA",45.547481754584,-122.891531737005,
11:11 Systems,Reston Data Center,"12100 Sunrise Valley Drive, Reston, VA 20191, USA",38.9318,-77.3527,20191
COPT Defense Properties,"100 Light Street, Baltimore","100 Light Street, Baltimore, Maryland 21201, USA",39.2946,-76.6252,21201
Amazon AWS,25430 Sutton Bay IAD150,"25430 Sutton Bay Plz, South Riding, VA 20152, USA",38.8976,-77.5092,20152
DC BLOX,Chattanooga CHA1 Data Center,"807 East 16th Street, Chattanooga, TN, USA",35.031534505557,-85.297226144605,
Equinix,LA2 Los Angeles Data Center,"818 West 7th Street, Los Angeles, CA, USA",34.048952327133,-118.25944150717,
Digital Realty,Boston BOS13 Data Center,"55 Middlesex Turnpike, Bedford, MA, USA",42.512332169578,-71.237679836917,
Netrality Data Centers,900 Walnut St. Louis Data Center,"900 Walnut St, St. Louis, MO, USA",38.625656446973,-90.195027854346,
H5 Data Centers,Albuquerque Data Center,"505 Marquette Avenue Northwest, Albuquerque, NM, USA",35.088518161834,-106.652688675864,
Digital Fortress,North Seattle Data Center - (LYN),"4200 194th St SW, Lynnwood, WA, USA",47.822293982758,-122.289808989637,
QTS Data Centers,Richmond 2 Data Center,"6030 Technology Boulevard, Sandston, Virginia 23150, EE. UU.",37.5157,-77.2758,23150
Digital Realty,Portland PDX12 Data Center,"5870 Northeast Schaaf Street, Hillsboro, OR 97124, USA",45.5387,-122.9636,97124
Amazon AWS,IAD58 Sterling,"22745 Relocation Drive, Sterling, VA, USA",38.986242152278,-77.441880832166,22745
Everstream,Royal Oak Data Center,"4815 Delemere Ave, Royal Oak, MI 48073, USA",42.519,-83.157,48073
DataBank,MSP2 East Twin Cities Data Center,"3255 Neil Armstrong Blvd, Eagan, MN, USA",44.838492816705,-93.1458055848,
Edged,Edged Phoenix Data Center,"8811 East Warner Road, Mesa, AZ 85212, USA",33.3425,-111.6353,85212
FDCservers.net,AT1 Equinix,"10 Peachtree Place Northwest, Atlanta, GA, USA",33.780667368157,-84.387562772347,
DataBank,10300 6th Ave Data Center,"10300 6th Avenue North, Plymouth, Minnesota 55441, USA",45.0058,-93.4193,55441
Digital Realty,Charlotte CLT10 Data Center,"113 North Myers Street, Charlotte, NC, USA",35.221903955202,-80.835503125952,
CoreSite,DC2 Washington DC Data Center,"1099 14th Street Northwest, Downtown, Washington, DC, USA",38.903385027732,-77.031684739996,
Ark data centers (Iowa),Tucson Data Center,"1215 East Pennsylvania Street, Tucson, AZ, USA",32.172346674917,-110.954197985564,
Flexential,Portland - Hillsboro 4 Data Center,"4915 NE Starr Blvd, Hillsboro, OR, USA",45.555177221799,-122.939055619267,
DartPoints,Columbus Data Center,"2425 Technology Blvd, Columbus, IN 47201, USA",39.2055,-85.9317,47201
DataBank,707 Wilshire Blvd Data Center,"707 Wilshire Blvd, Los Angeles, California 90017, USA",34.0559,-118.2666,90017
24Shells Inc,EWR Data Center,"101 Possumtown Road, Piscataway, NJ, USA",40.557158328852,-74.484181373606,
Markley Group,Boston Data Center,"1 Summer Street, Boston, MA, United States",42.354700002984,-71.060239975834,
Csquare,MSP1-B Shakopee Data Center,"4450 Dean Lakes Blvd, Shakopee, MN 55379, USA",44.7793,-93.5197,55379
HostDime,Orlando Data Center,"440 W Kennedy Blvd, Orlando, FL 32810, USA",28.6214,-81.4294,32810
Amazon AWS,IAD63 Chantilly,"43701 Clubber Ln, Chantilly, VA 20152, USA",38.8976,-77.5092,20152
DataBank,IND2 Downtown Indianapolis Data Center,"650 West Henry Street, Indianapolis, IN, USA",39.760132543631,-86.170481986446,
Liquid Web,Lansing Data Center - B,"4428 South Creyts Road, Lansing, MI, USA",42.6879488829,-84.64301097423,
Equinix,SE3 Seattle Data Center,"2020 5th Avenue, Seattle, WA, USA",47.614430118173,-122.339786674054,
Hivelocity,TPA1 Tampa Data Center,"8010 Woodland Center Boulevard suite 500, Tampa, FL, USA",28.019148101108,-82.524640347122,
Microsoft Azure,Cumming - USA,"5855 SW Kerry St, Cumming, Iowa 50061, USA",41.4849,-93.7539,50061
Ark data centers (Iowa),Canton Data Center,"4726 Hills and Dales Rd NW, Canton, OH 44708, USA",40.812,-81.4241,44708
CyrusOne,NVA8 Northern Virginia Data Center,"45905 Maries Road, Sterling, VA 20166, USA",38.9814,-77.4723,20166
Iron Mountain Data Centers,OHS - 1 - Ohio Data Center,"3366 S Tech Blvd, Miamisburg, OH, USA",39.591057277094,-84.236471990234,
Iron Mountain Data Centers,KCM - 1 - Kansas City Data Center,"6301 Winchester Avenue, Kansas City, MO, USA",39.010141891898,-94.504056952197,
Data Holdings Data Center,Minneapolis Data Center,"1001 3rd Ave S, Minneapolis, MN 55404, USA",44.9609,-93.2642,55404
NETdepot,"NETdepot - Atlanta, GA","1100 White Street Southwest, Atlanta, GA 30310, USA",33.7278,-84.4232,30310
EdgeConnex,MIA02 Miami Data Center,"475 Northeast 185th Street, Miami, FL, USA",25.945528496963,-80.191054046243,
Windstream,"Atlanta, GA Data Center","1593 Northeast Expressway, Atlanta, GA, USA",33.833906177354,-84.326580802131,
Aligned Data Centers,Dallas Data Center,"2800 Summit Ave, Plano, TX, USA",33.009512933441,-96.676511055174,
Telehouse,New York Chelsea Data Center,"85 10th Avenue, New York, NY, USA",40.743033946838,-74.007787943821,
CBRE,2121 E 63rd St Data Center,"2121 East 63rd Street, Kansas City, MO, USA",39.011343311989,-94.561999372468,
Metrobloks,DTW-D Metrobloks Data Center,"27350 11 Street, Detroit, Michigan, United States",35.8298,-79.8986,27350
LightEdge,Des Moines II Data Center,"1401 Northridge Circle, Altoona, IA 50009, USA",41.6475,-93.4724,50009
Csquare,EWR3-C Piscataway Data Center,"3 Corporate Place, Piscataway, NJ 08854, USA",40.5515,-74.459,08854
QTS Data Centers,Hillsboro 1 Data Center,"4951 Northeast Huffman Street, Hillsboro, OR, USA",45.55884241851,-122.927813559271,
Switch Data Centers,Houston 1 Data Center,"5555 San Felipe Street, Houston, TX, USA",29.749501361395,-95.471944983803,
Digital Realty,Chicago ORD13 Data Center,"9355 Grand Avenue, Franklin Park, IL 60131, USA",41.9339,-87.8734,60131
Windstream,"Oklahoma City, OK Data Center","825 N Broadway Ave, Oklahoma City, Oklahoma 73102, USA",35.4726,-97.5199,73102
TierPoint,Boston - Marlborough Data Center,"34 St Martin Dr, Marlborough, MA, USA",42.313287408237,-71.578425155756,
Evocative,Boston Data Center (BOS1),"50 Inner Belt Road, Somerville, MA, USA",42.3779923899,-71.080310442988,
DataBank,DEN2 Centennial Data Center,"6900 South Peoria Street, Centennial, CO, USA",39.591411370594,-104.846953062735,
Summit,Denver Data Center,"5350 South Valentia Way, Greenwood Village, CO, USA",39.618135518217,-104.89148234245,
DataBank,SEA2 SeaTAC Data Center,"3311 South 120th Place, Tukwila, WA, USA",47.49503673869,-122.290430088663,
QTS Data Centers,Ashburn-Shellhorn ASH3 Data Center 1,"22291 Shellhorn Road, Ashburn, Virginia 20147, USA",39.0373,-77.4805,20147
Lumen,Hartford 1 Data Center,"155 Locust Street, Hartford, CT, USA",41.744969394871,-72.664991800052,
Acehost Data Centers,Tampa Data Center,"412 East Madison Street, Tampa, FL, USA",27.94908846633,-82.457104922485,
1547 Critical Systems Realty,CHWY1 Cheyenne Data Center,"340 Progress Circle, Cheyenne, Wyoming, USA",41.129671820034,-104.741439905363,
DataBank,2100 M St Washington DC Data Center,"2100 M Street Northwest, Washington D.C., District of Columbia 20037, USA",38.9014,-77.0504,20037
Digital Realty,Chicago ORD14 Data Center,"9377 Grand Avenue, Franklin Park, IL 60131, USA",41.9339,-87.8734,60131
Csquare,EWR2-C Weehawken Data Center,"1919 Park Ave 2nd floor, Weehawken, NJ 07086, USA",40.7681,-74.0208,07086
MOD Mission Critical,AU2 - DRT Austin Data Center PoP,"7500 Metro Center Dr, Austin, TX 78744, USA",30.1876,-97.7472,78744
Amazon AWS,20935 Loudoun County Pkwy,"20935 Loudoun County Pkwy, Ashburn, VA 20147, USA",39.0373,-77.4805,20147
EdgeConnex,MAD01 Madison Data Center,"4916 East Broadway, Madison, Wisconsin 53716, USA",43.0631,-89.3133,53716
Iron Mountain Data Centers,VA-2 - Northern Virginia Data Center,"11660 Hayden Road, Manassas, VA, USA",38.776994351659,-77.546263438438,11660
Digital Realty,Boston BOS14 Data Center,"128 1st Avenue, Needham, MA, USA",42.301209504856,-71.21903714315,
Lumen,Detroit 2 Data Center,"1965 Porter Street, Detroit, Michigan, EE. UU.",42.32529326916,-83.069261714383,
Element Critical,Northern Virginia One Data Center,"7990 Quantum Drive, Vienna, VA, USA",38.908959119073,-77.220804028782,
Segra,Charlotte Two Data Center,"3101 International Airport Drive, Charlotte, NC, USA",35.193851234016,-80.938454689895,
Ark data centers (Iowa),Cleveland Data Center,"7300 E Pleasant Valley Rd, Independence, OH 44131, USA",41.3809,-81.6642,44131
Cogent Communications,Minneapolis Data Center,"250 Marquette Avenue, Minneapolis, MN, USA",44.980807516249,-93.267538395369,
Digital Realty,New York JFK13 Data Center,"32 Avenue of the Americas, 6th Avenue, New York, NY 10013, USA",40.7185,-74.0025,10013
DSM,Winter Haven Data Center,"200 Avenue B Northwest, Winter Haven, FL, USA",28.023825622175,-81.729378701062,
Midwest Energy & Communications,60590 Decatur Rd Data Center,"60590 Decatur Rd, Cassopolis, MI, USA",41.91911906559,-85.974407562043,60590
Amazon AWS,75294 Lewis,"75294 Lewis and Clark Dr, Boardman, Oregon 97818, USA",45.8272,-119.7206,97818
365 Data Centers,NA2 Nashville Data Center,"101 Molloy Street suite 300, Nashville, TN, USA",36.158868044689,-86.772537663007,
DataBank,SAN1 San Diego World Trade Data Center,"12270 World Trade Drive suite 100, San Diego, CA 92128, USA",33.0067,-117.069,92128
Amazon AWS,77954 Cottonwood Bend PDX81,"77954 Cottonwood Bend Road, Hermiston, OR 97838, USA",45.845,-119.2849,97838
TierPoint,St Louis Locust Data Center,"2300 Locust Street, St. Louis, MO, USA",38.633619173725,-90.212703743117,
Vantage Data Centers,CA2 Santa Clara Data Center,"737 Mathew Street, Santa Clara, CA, USA",37.364026423248,-121.946899714855,
US Signal,1655 W Sunrise Blvd Data Center,"1655 West Sunrise Boulevard, Gilbert, AZ 85233, USA",33.3354,-111.8153,85233
Colocation Northwest,Redmond Data Center,"2457 152nd Avenue Northeast, Redmond, WA, USA",47.632500453681,-122.138236687583,
H5 Data Centers,San Luis Obispo Data Center,"3610 Sacramento Dr, San Luis Obispo, CA, USA",35.255802509028,-120.640633916781,
Digital Realty,Silicon Valley SJC30 Data Center,"3105 Alfred Street, Santa Clara, CA, USA",37.378294895114,-121.958112019095,
QTS Data Centers,Overland Park - Kansas City Data Center,"12851 Foster Street, Overland Park, Kansas 66213, USA",38.8982,-94.7049,66213
TierPoint,Dallas - Allen Data Center,"840 Allen Commerce Parkway, Allen, TX, USA",33.137117000754,-96.658389467079,
Ark data centers (Iowa),Pittsburgh Data Center,"161 Armstrong Drive, Freeport, PA, USA",40.752216992319,-79.637206969614,
H5 Data Centers,Nashville Data Center,"211 Commerce Street, Nashville, TN, USA",36.162846012117,-86.776553851914,
Edged,Edged Kansas City Data Center,"3420 North Arlington Avenue, Kansas City, MO 64161, USA",39.1661,-94.464,64161
Lumen,Indianapolis 3 Data Center,"4625 W 86th St, Indianapolis, IN, USA",39.910755301784,-86.238755772933,
Liberty Center One,Royal Oak MI Data Center,"4815 Delemere Avenue, Royal Oak, MI, USA",42.533505150365,-83.177484741051,
Lumen,McLean 1 Data Center,"1755 Old Meadow Road, McLean, VA 22102, USA",38.953,-77.2295,22102
Expedient,Pittsburgh North Shore Data Center,"100 South Commons suite 001, Pittsburgh, PA 15212, USA",40.4406,-79.9959,15212
DartPoints,Asheville Data Center,"100 Technology Dr ste c, Asheville, NC, USA",35.48823385755,-82.557456000968,
US Signal,Indianapolis North Data Center,"6325 Morenci Trail, Indianapolis, IN, USA",39.870361988372,-86.237059527187,
365 Data Centers,MA1 Marlboro Data Center,"250 Locke Drive, Marlborough, MA, USA",42.352473643773,-71.586089735658,
365 Data Centers,NJ10 North Bergen Data Cennter,"5851 West Side Avenue, Secaucus, NJ, USA",40.796910515426,-74.031199018485,
Equinix,DC4 Ashburn Data Center,"21691 Filigree Court, Ashburn, VA, USA",39.016484436121,-77.461963955994,21691
Lumen,Detroit 1 Data Center,"19675 West 10 Mile Road, Southfield, MI, USA",42.472171034884,-83.238100904617,19675
Csquare,ABQ1-A Albuquerque Data Center,"400 Tijeras Ave NW, Albuquerque, NM 87102, USA",35.0818,-106.6482,87102
Windstream,"Tulsa, OK Data Center","110 W 7th St, Tulsa, Oklahoma 74119, USA",36.1407,-95.9902,74119
CyrusOne,CIN3 Cincinnati Mason Data Center,"4800 Parkway Dr, Mason, OH, USA",39.304087985914,-84.311554983403,
Cogent Communications,Miami Data Center,"200 Southeast 1st Street, Miami, FL, USA",25.773296689509,-80.190127845942,
Digital Realty,Northern Virginia VA3 Data Center,"1780 Business Center Drive, Reston, VA, USA",38.94847325466,-77.327229723952,
Equinix,SV2 Santa Clara Data Center,"1350 Duane Avenue, Santa Clara, CA, USA",37.378317987257,-121.954920022727,
ValorC3,St George 1 Data Center,"1108 West 1600 South, St. George, UT, USA",37.081510730591,-113.607140413303,
Amazon AWS,IAD78 44862 Interconnection Plaza,"44862 Interconnection Plz, Ashburn, VA 20147, USA",39.0373,-77.4805,20147
DartPoints,Greenville Data Center,"78 Global Dr ste 100, Greenville, SC 29607, USA",34.8285,-82.3516,29607
HorizonIQ,Phoenix 3 Data Center,"2500 West Frye Road, Chandler, AZ, USA",33.300529510388,-111.886114660597,
NTT Global Data Centers,PH1 Phoenix Data Center,"10256 East Elliot Road, Mesa, AZ 85212, USA",33.3425,-111.6353,85212
Lumen,Detroit 4 Data Center,"200 Galleria Officentre, Southfield, MI, USA",42.496388867729,-83.293493885218,
365 Data Centers,CL2 Columbus Data Center,"251 Neilston Street, Columbus, OH, USA",39.968259851433,-82.99470963096,
Acehost Data Centers,Raleigh-Durham Data Center,"4518 South Miami Boulevard, Durham, NC, USA",35.895812239449,-78.849193071411,
Segra,Charlotte One Data Center,"3100 International Airport Drive, Charlotte, NC, USA",35.193915355575,-80.937197488238,
Aligned Data Centers,NEO-01 Data Center,"2509 Hayes Ave, Sandusky, OH 44870, USA",41.4349,-82.7063,44870
Lumen,Mobile 1 Data Center,"50 North Lawrence Street, Mobile, AL, USA",30.691081155413,-88.048218734585,
Telesystem,DC-1 Ohio Data Center,"4818 Angola Road, Toledo, OH, USA",41.624376732681,-83.656072636906,
Digital Realty,New York JFK12 Data Center,"60 Hudson Street, New York, NY, USA",40.717923986128,-74.008750102487,
Lumen,Lansing 1 Data Center,"1206 May Street, Lansing, MI, USA",42.742020833652,-84.534405481319,
Lumen,Minnetonka 1 Data Center,"5510 Feltl Road, Hopkins, MN, USA",44.903471383687,-93.419905804759,
DartPoints,North Charleston Data Center,"8480 Palmetto Commerce Pkwy, Ladson, SC 29456, USA",32.993,-80.1257,29456
Csquare,SFO1 Santa Clara Data Center Campus,"2401 Walsh Avenue, Santa Clara, CA, USA",37.371543984568,-121.969728582525,
DataBank,Orangeburg Campus,"2000 Corporate Dr, Orangeburg, New York 10962, USA",41.0442,-73.9609,10962
TierPoint,Sioux Falls - West Data Center,"5300 North La Mesa Drive, Sioux Falls, SD, USA",43.606957888048,-96.809014695142,
US Signal,Indianapolis Data Center,"701 West Henry Street, Indianapolis, Indiana, USA",39.759674137346,-86.171060840679,
Skybox Datacenters,Legacy Campus,"6800 Communications Parkway, Plano, TX, USA",33.068294579832,-96.831213551308,
Amazon AWS,75300 Lewis,"75300 Lewis and Clark Dr, Boardman, Oregon 97818, USA",45.8272,-119.7206,97818
365 Data Centers,LI1 Commack Data Center,"500 Commack Road, Commack, NY, USA",40.82296884657,-73.292486720389,
Aptum Technologies,MIA-89P Data Center,"2300 NW 89th Pl, Doral, FL 33172, USA",25.7735,-80.3572,33172
Flexential,Nashville - Brentwood Data Center,"7100 Commerce Way suite 25, Brentwood, TN 37027, USA",36.0063,-86.7909,37027
Microsoft Azure,Project Ginger East,"1475 SE Maffitt Lake Ct, West Des Moines, Iowa 50265, USA",41.5805,-93.7447,50265
ManagedWay,Byron Data Center,"700 76th Street Southwest, Byron Center, Byron Township, Michigan, EE. UU.",42.82632105738,-85.681725374297,
Cologix,LAK1 Lakeland Data Center,"2850 Interstate Drive, Lakeland, FL, USA",28.07966238264,-81.975190165441,
DataBank,MSP1 West Twin Cities Data Center,"7700 France Ave S, Edina, MN, USA",44.86274350661,-93.330515070507,
Otava,Indianapolis Data Center,"505 West Merrill Street, Indianapolis, IN, USA",39.758716504909,-86.167732051652,
DartPoints,Cincinnati Data Center,"302 West Third, West 3rd Street, Cincinnati, OH, USA",39.098061,-84.517578,
Iron Mountain Data Centers,VA-7 - Northern Virginia Data Center,"8330 Bethlehem Road, Manassas, VA, USA",38.77518071736,-77.539951110976,
Amazon AWS,75250 Gar Swanson,"75250 Gar Swanson Dr, Boardman, Oregon 97818, USA",45.8272,-119.7206,97818
Equinix,DC15 Washington DC IBX Data Center,"44780 Performance Circle, Ashburn, VA 20147, U.S.",39.0373,-77.4805,20147
MOD Mission Critical,Internet 123 Data Center,"24245 Northwestern Highway, Southfield, MI, USA",36.8242,-82.496,24245
Segra,Kannapolis Data Center,"465 Charles Babbage Lane, Kannapolis, NC, USA",35.505315338031,-80.622704206325,
Crown Castle,Crown Castle Stamford 1,"1351 Washington Blvd #6902, Stamford, Connecticut, USA",41.058218274758,-73.542551916811,
Lumen,Birmingham 2 Data Center,"2001 Park Place, Birmingham, AL, USA",33.519293956235,-86.809818021399,
Aligned Data Centers,IAD02 Ashburn VA Data Center,"21821 Uunet Drive, Ashburn, VA, USA",38.1533,-75.9496,21821
CyrusOne,CHI5 Chicago Lombard Data Center,"1850 Springer Drive, Lombard, IL, USA",41.84925699227,-88.029794976129,
Hivelocity,TPA2 Tampa Data Center,"5908 Hampton Oaks Parkway suite d, Tampa, FL, USA",28.004838599826,-82.357630591075,
Volico Data Center,FLL1 - Broward Data Center,"500 Green Road, Deerfield Beach, FL 33064, USA",26.2785,-80.1157,33064
DC BLOX,Birmingham BHM1 Data Center,"433 6th Street, Birmingham, AL, USA",33.527238766146,-86.887491577754,
ManagedWay,Southfield SFJ1 Data Center,"24700 Northwestern Highway, Southfield, Michigan, EE. UU.",42.471632246148,-83.238024964574,24700
Prime Data Centers,Prime Phoenix - Lower Buckeye #1,"11753 W Lower Buckeye Rd, Avondale, AZ, USA",40.7881,-73.5331,11753
Compass Datacenters,Tennessee Data Center,"3111 Eddy Lane, Franklin, TN, USA",35.924194598386,-86.857095052914,
iM Critical,Miami Data Center,"100 Northeast 80th Terrace, Miami, FL 33138, USA",25.8521,-80.1821,33138
Irongate,500 Bielenberg Drive,"500 Bielenberg Drive, Woodbury, MN, USA",44.945809214816,-92.956604572458,
QTS Data Centers,Sacramento Data Center,"1100 North Market Boulevard, Sacramento, CA, USA",38.646517413969,-121.486374149791,
Prime Data Centers,Prime Santa Clara - 1111 Comstock,"1111 Comstock Street, Santa Clara, CA, USA",37.37471125432,-121.953115398974,
Vantage Data Centers,VA2 Ashburn Data Center Campus,"22435 Glenn Drive, Sterling, VA 20164, USA",39.023,-77.3994,20164
Amazon AWS,Wanapa Campus,"34820 Hill Road, Oregon, WI, USA",42.914745327508,-89.351870863652,34820
Vantage Data Centers,TX22 - San Antonio Data Center,"5207 Rogers Rd, San Antonio, Texas 78251, USA",29.4597,-98.6555,78251
Irongate,3199 Pilot Knob Rd,"3199 Pilot Knob Road, Eagan, MN, USA",44.842625639794,-93.169343645298,
Expedient,Baltimore Owings Mills Data Center,"11155 Red Run Blvd, Owings Mills, MD, USA",39.427124852979,-76.811775703361,11155
Ntirety,Newark Data Center,"350 Pencader Drive, Newark, DE, USA",39.612652119069,-75.761402284615,
Netrality Data Centers,1301 Fannin Houston Data Center,"1301 Fannin Street, Houston, TX, USA",29.753566877802,-95.365693045485,
Expedient,Cleveland - 152 NEO Data Center,"15248 Neo Parkway, Cleveland, OH, USA",41.429303987617,-81.574028004694,15248
DartPoints,Charleston Data Center,"8480 Palmetto Commerce Pkwy, Ladson, Charleston, SC 29456, EE. UU.",32.993,-80.1257,29456
Ark data centers (Iowa),Boise Data Center,"2653 South Victory View Way, Boise, ID, USA",43.579920341065,-116.290755577521,
Rackspace,IAD3 Ashburn I Data Center,"44461 Chilum Place, Ashburn, VA, USA",39.021141631073,-77.463525169279,44461
TierPoint,Charlotte - Center Park Data Center,"1805 Center Park Drive, Charlotte, NC, USA",35.173102000343,-80.927813109443,
Lumen,Los Angeles Data Center,"818 W 7th St, Los Angeles, CA, USA",34.048952327133,-118.25944150717,
H5 Data Centers,Minneapolis Data Center,"1125 Energy Park Drive, Saint Paul, MN, USA",44.972552850364,-93.148001559613,
H5 Data Centers,Ashburn Data Center,"21800 Beaumeade Circle, Ashburn, VA, USA",39.013825696434,-77.451564696362,21800
EdgeConnex,PHX01 Phoenix Data Center,"3011 S 52nd St ste 107, Tempe, AZ 85282, USA",33.3917,-111.9249,85282
Csquare,SEA2-A Tukwila Data Center,"6101 S 180th St, Tukwila, WA 98188, USA",47.4483,-122.2731,98188
Lumen,Akron 2 Data Center,"110 South Arlington Street, Akron, OH, USA",41.069267760529,-81.491145902076,
Equinix,DC5 Ashburn Data Center,"21701 Filigree Court, Ashburn, VA, USA",39.4461,-77.335,21701
Digital Realty,Northern Virginia IAD37 Data Center,"44060 Digital Loudoun Plaza bldg k, Ashburn, VA 20147, USA",39.0373,-77.4805,20147
Csquare,EWR2-B Weehawken Data Center,"300 J. F. Kennedy Blvd, Weehawken Township, NJ, USA",40.772386631761,-74.015846992621,
Windstream,"Brentwood, TN Data Center","105 Westwood Pl, Brentwood, Tennessee 37027, USA",36.0063,-86.7909,37027
365 Data Centers,P1 Phoenix Data Center,"1850 West Deer Valley Road, Phoenix, AZ, USA",33.68387900088,-112.098226407435,
Expedient,Cleveland - 151 NEO Data Center,"15166 Neo Parkway, Cleveland, OH, USA",41.428397191422,-81.573993890348,15166
Lumen,Pittsburgh 1 Data Center,"143 South 25th Street, Pittsburgh, PA, USA",40.425380855065,-79.970339508713,
Digital Realty,Silicon Valley SJC16 Data Center,"1525 Comstock Street, Santa Clara, CA, USA",37.374939912639,-121.956013693454,
CBRE,Central Ohio Powered Land,"500 N 4th St, Coshocton, OH 43812, USA",40.2754,-81.866,43812
Data Holdings Data Center,Milwaukee Data Center,"3135 W Highland Blvd, Milwaukee, WI, USA",43.043940757887,-87.953979404622,
Cogent Communications,Oklahoma City Data Center,"630 Southwest 7th Street, Oklahoma City, Oklahoma 73109, USA",35.4259,-97.5261,73109
DC BLOX,Huntsville HSV1 Data Center,"333 Diamond Drive Northwest, Huntsville, AL, USA",34.710007507685,-86.693000275033,
Lunavi,Cheyenne Data Center,"340 Progress Circle, Cheyenne, WY, USA",41.129671820034,-104.741439905363,
Verizon,Verizon St. Louis 2,"2020 Westport Center Dr, Maryland Heights, Missouri 63146, USA",38.7033,-90.4618,63146
Lumen,Corpus Christi 1 Data Center,"4901 Westway Drive, Corpus Christi, TX, USA",27.792848240488,-97.451541050082,
TierPoint,Kansas City - Lenexa Data Center,"14500 West 105th Street, Lenexa, KS, USA",38.940533161601,-94.754990010874,14500
Digital Realty,Chicago CH3 Data Center,"1400 East Devon Avenue, Elk Grove Village, IL, USA",41.993747927246,-87.965698646366,
Data Canopy,Cincinnati,"229 W 7th St, Cincinnati, OH 45202, USA",39.1072,-84.502,45202
365 Data Centers,BU1 Buffalo Data Center,"350 Main Street, Buffalo, NY, USA",42.884328492398,-78.875143946556,
365 Data Centers,MIA3 Miami Data Center,"100 Northeast 80th Street, Miami, FL, USA",25.865059440891,-80.121192075196,
Amazon AWS,IAD13 Ashburn,"43790 Devin Shafron Drive, Ashburn, VA 20147, USA",39.0373,-77.4805,20147
Telehouse,Los Angeles Data Center,"626 Wilshire Boulevard, Los Angeles, CA, USA",34.048438851744,-118.256957781621,
Colocation America,MiamiDC1 Data Center,"36 NE 2nd St, Miami, FL, USA",25.775841980137,-80.192962605596,
Lumen,Pittsurgh 2 Data Center,"200 Technology Drive, Pittsburgh, PA, USA",40.430063531003,-79.959704466145,
Csquare,Los Angeles (LAX1-Hawthorne) Data Center,"2301 W 120th St, Hawthorne, California, USA",33.924402191268,-118.320348438956,
Data Canopy,Phoenix (Chandler),"2605 South Ellis Street, Chandler, AZ, USA",33.267602167683,-111.882988965084,
QTS Data Centers,San Antonio Data Center,"8535 Potranco Rd, San Antonio, TX 78251, USA",29.4597,-98.6555,78251
Csquare,DEN1-A Highlands Ranch Data Center,"9180 Commerce Center Circle, Highlands Ranch, CO 80129, USA",39.5397,-105.0109,80129
Lumen,Spartanburg Data Center,"145 North Church Street, Spartanburg, SC 29306, EE. UU.",34.8937,-81.9228,29306
365 Data Centers,IN1 - Indianapolis Data Center,"701 W Henry St, Indianapolis, IN, USA",39.759674137346,-86.171060840679,
Equinix,SE2 Seattle Data Center,"2001 6th Avenue, Seattle, WA, USA",47.614379449568,-122.338711946429,
EdgeConnex,POR02 Portland Data Center,"6297 NE Evergreen Pkwy building a, Hillsboro, OR 97124, USA",45.5387,-122.9636,97124
TierPoint,Bethlehem Data Center,"3864 Courtney Street ste 130, Bethlehem, PA 18017, USA",40.6622,-75.3903,18017
165 Halsey Street,165 Halsey Street Data Center,"165 Halsey Street, Halsey Street, Newark, NJ 07102, USA",40.732,-74.1765,07102
Csquare,LAX3-A Irvine Data Center,"17836 Gillette Ave, Irvine, CA 92614, USA",33.6829,-117.8298,92614
Csquare,EWR2-E Weehawken Data Center,"300 JFK Boulevard East, Weehawken Township, NJ, USA",40.761774750781,-74.024969504226,
IBM Cloud,"WDC01 Chantilly, VA","4030 Lafayette Center Drive, Chantilly, VA, USA",38.910158695146,-77.472434797079,
DataBank,DataBank BOS1 Data Center,"1 Summer Street, Boston, MA, USA",42.354700002984,-71.060239975834,
Csquare,ABQ1 Albuquerque Data Center Campus,"400 Tijeras Avenue Northwest, Albuquerque, NM, USA",35.086463505908,-106.651710423944,
Quonix,Philadelphia - Locust St,"2401 Locust Street, Philadelphia, PA, USA",39.950348101533,-75.180023086807,
NaviSite,Andover Data Center,"400 Minuteman Road, Andover, MA, USA",42.696524743315,-71.211104677623,
Cogent Communications,Denver Data Center,"4643 S Ulster St, Denver, CO, USA",39.630671031601,-104.897379262791,
Navegalo,Navegalo Miami Data Center,"50 NE 8th St, Miami, FL, USA",25.781607304598,-80.192844001666,
Csquare,CMH1-A Columbus Data Center,"8180 Green Meadows Dr, Lewis Center, OH 43035, USA",40.1879,-82.9878,43035
Lumen,Riverside 1 Data Center,"1550 Marlborough Avenue, Riverside, CA, USA",33.996935074216,-117.345743317784,
DartPoints,Columbia Data Center,"1000 Catawba Street ste 180, Columbia, SC 29201, USA",34.0004,-81.0334,29201
Microsoft Azure,Palmetto Data Center,"8527 Williams Rd, Palmetto, Georgia 30268, USA",33.5242,-84.679,30268
365 Data Centers,MO1 St. Louis Data Center,"900 Walnut Street, St. Louis, MO, USA",38.625656446973,-90.195027854346,
Lumen,Miami 4 Data Center,"1109 Northwest 22nd Street, Miami, FL, USA",25.798016724083,-80.214340984921,
Amazon AWS,Tanner Way,"10281 Tanner Way, Manassas, VA 20110, USA",38.7492,-77.4878,20110
UnitedLayer,Las Vegas North Data Center,"7135 South Decatur Boulevard, Las Vegas, NV, USA",36.060052991873,-115.209010036294,
Amazon AWS,IAD6 (Loudoun Exchange),"43831 Devin Shafron Dr building c, Ashburn, VA 20147, USA",39.0373,-77.4805,20147
DataBank,IAD6 - Culpepper Data Center,"14601 Germanna Hwy, Culpeper, Virginia 22701, USA",38.5117,-77.9928,22701
DataBank,PHX1 Downtown Phoenix Data Center,"3110 North Central Avenue suite d151, Phoenix, AZ 85012, USA",33.5097,-112.0678,85012
H5 Data Centers,Phoenix Data Center,"2600 West Germann Road, Chandler, AZ, USA",33.27659242939,-111.885686261526,
EdgeConnex,DEN01 Denver Data Center,"8535 Highfield Parkway, Centennial, CO, USA",39.560748021845,-104.827616263566,
NOVVA,Tahoe Reno Data Center,"3399 Peru Drive, Sparks, NV, USA",39.527938947793,-119.487674301252,
TierPoint,Baltimore - BWI Data Center,"813 Pinnacle Drive, Linthicum Heights, MD, USA",39.213400361693,-76.682760360037,
COPT Data Center,DC-6 Manassas Data Center,"9651 Hornbaker Road, Manassas, VA, USA",38.74715431535,-77.532474788619,
Equinix,SV3 San Jose Data Center,"1735 Lundy Avenue, San Jose, CA, USA",37.388234449266,-121.88848581253,
Csquare,BOS4-A Watertown Data Center,"486 Arsenal Way, Watertown, MA 02472, USA",42.37,-71.1773,02472
DataBank,DataBank SLC3 Data Center,"14926 Pony Express Rd, Bluffdale, Salt Lake, UT, USA",40.480282153227,-111.905556904108,14926
CyrusOne,CIN4 Cincinnati Hamilton Data Center,"103 Knightsbridge Drive, Hamilton, OH, USA",39.384945691277,-84.566400211568,
TECfusions,"Tucson, AZ Data Center","3701 East Columbia Street, Tucson, AZ, USA",32.173407027579,-110.913496469573,
COPT Defense Properties,"310 The Bridge Street, Huntsville","310 The Bridge Street, Huntsville, AL, USA",34.716234130187,-86.671864551805,
Zenlayer,LAX5 Los Angeles Data Center,"600 W 7th St, Los Angeles, CA, USA",34.047284873224,-118.256858958982,
DataBank,MEM1 - Memphis Data Center,"7620 Appling Center Drive, Memphis, TN, USA",35.202849793808,-89.80861554379,
"DaSTOR, LLC",411 Swedeland Road Data Center,"411 Swedeland Road, King of Prussia, PA, USA",40.075691668352,-75.333768061983,
Digital Fortress,South Seattle Data Center - (TUK),"12101 Tukwila International Boulevard, Tukwila, WA, USA",47.49410006101,-122.294466561775,12101
EdgeConnex,DEN02 Denver Data Center,"8451 Highfield Parkway, Englewood, CO, USA",39.562925053557,-104.8291975096,
Edged,Edged Dallas Data Center,"505 N Wildwood Dr, Irving, Texas 75061, USA",32.8267,-96.9633,75061
H5 Data Centers,Atlanta Data Center,"345 Courtland Street Northeast, Atlanta, GA, USA",33.765159148614,-84.383736077875,
Amazon AWS,45900 Pathfinder Plz,"45900 Pathfinder Plaza, Sterling, VA 20164, USA",39.023,-77.3994,20164
EdgeConnex,POR01 Portland Data Center,"6327 NW Evergreen Pkwy building c suite c 300, Hillsboro, OR 97124, USA",45.5387,-122.9636,97124
Amazon AWS,45259 Sterling,"45259 West Severn Way, Sterling, VA, USA",39.020774587282,-77.437107687193,45259
Equinix,DC13 Ashburn Data Center,"21830 Uunet Drive, Ashburn, VA, USA",38.4026,-75.6963,21830
US Signal,Madison Data Center,"222 West Washington Avenue, Madison, WI, USA",43.073261032381,-89.387099188467,
Direct LTx,Reading PA Data Center,"2561 Bernville Road, Reading, PA, USA",40.381115563391,-75.981910459689,
Windstream,"Charlotte, NC Data Center","301 S McDowell St, Charlotte, North Carolina 28204, USA",35.2132,-80.8231,28204
Digital Realty,Dallas DFW16 Data Center,"1232 Alma Road, Richardson, TX, USA",32.966070786568,-96.715574914923,
Summit,Ashburn Data Center,"43830 Devin Shafron Drive, Ashburn, Virginia 20147, USA",39.0373,-77.4805,20147
Bluebird Data Centers,Bluebird Quad Cities Data Center,"2701 Devils Glen Road, Bettendorf, IA, USA",41.55034562645,-90.482372283229,
China Telecom,Telehouse Chelsea Data Center,"85 10th Avenue, New York, NY 10011, USA",40.7402,-73.9996,10011
Expedient,Columbus - Upper Arlington Data Center,"5000 Arlington Centre Boulevard, Upper Arlington, OH, USA",40.056912559111,-83.077931368294,
DartPoints,Baton Rouge Data Center 1,"7127 Florida Boulevard, Baton Rouge, LA, USA",30.453779334414,-91.115919440573,
TierPoint,Chicago Â– West Data Center,"9333 West Grand Avenue, Chicago, IL, USA",41.926816921647,-87.858571972632,
Vantage Data Centers,OH1 - New Albany Data Center,"3325 Horizon Court, Johnstown, Ohio 43031, USA",40.1445,-82.6973,43031
DataBank,LAS1 Las Vegas Data Center,"7185 Pollock Drive, Las Vegas, NV, USA",36.059706567814,-115.147138934185,
TierPoint,Lehigh Valley Data Center,"3949 Schelden Circle, Bethlehem, PA, USA",40.675057717913,-75.378269094684,
EdgeConnex,New Albany Data Center,"9850 Innovation Campus Wy, Johnstown, Ohio 43031, USA",40.1445,-82.6973,43031
DataBank,DataBank MSP3 Data Center,"8111 Oxbow Creek Drive North, Brooklyn Park, MN, USA",45.14362967347,-93.385808222641,
WeConnect Data Center,Westerville Data Center,"35 Collegeview Road, Westerville, OH, USA",40.123957097588,-82.945377604545,
Data Canopy,Atlanta 1,"2480 Rock House Road, Lithia Springs, GA, USA",33.741676366768,-84.596519155706,
Lumen,New York 7 Data Center,"601 West 26th Street, New York, NY, USA",40.751597234398,-74.006539626981,
Charlotte Colocation Center,Charlotte Data Center,"5821 Fairview Rd, Charlotte, NC, USA",35.152210651502,-80.841782261078,
Csquare,SFO3 Sunnyvale Data Center Campus,"1400 Kifer Rd, Sunnyvale, CA, USA",37.37349504017,-121.985736927942,
Cogent Communications,New York Data Center,"25 Broadway, New York, NY, USA",40.705791642287,-74.013958868577,
Amazon AWS,12807 Donop Rd,"12807 Donop Rd, Elmendorf, Texas 78223, USA",29.3579,-98.4356,78223
Cogent Communications,Buffalo Data Center,"271 Bristol St, Buffalo, New York 14206, USA",42.8811,-78.8104,14206
LightEdge,Austin II Data Center,"7000 Burleson Rd, Austin, TX 78744, USA",30.1876,-97.7472,78744
CenterServ,Albuquerque Data Center,"6565 Americas Parkway, Albuquerque, NM, USA",35.10039301361,-106.570820029159,
Amazon AWS,Powerline Campus,"80817 Powerline Road, Umatilla, Oregon 97882, USA",45.8998,-119.3553,97882
DataBank,DEN1 Englewood Data Center,"393 Inverness Parkway, Englewood, CO, USA",39.56432977671,-104.866649948464,
Colocation America,NYDC3 - New York Data Center,"11 Skyline Dr, Hawthorne, NY, USA",41.089183065014,-73.814499903857,
IBM Cloud,"HOU00 Houston, TX","835 Greens Parkway suite 150, Houston, TX, USA",29.942450090285,-95.426692178206,
Amazon AWS,15455 John Marshall,"15455 John Marshall Hwy, Haymarket, VA 20169, USA",38.8674,-77.6445,20169
Digital Fortress,Downtown Seattle Data Center - (SEA),"3101 Western Avenue, Seattle, WA, USA",47.617714986027,-122.356694397683,
Netrality Data Centers,Indy Telcom Center,"701 West Henry Street, Indianapolis, IN, USA",39.759674137346,-86.171060840679,
TierPoint,Philadelphia Data Center,"4775 League Island Boulevard, Philadelphia, PA 19112, USA",39.8893,-75.1782,19112
Amazon AWS,Westfax Campus,"4100 Westfax Dr, Chantilly, Virginia 20151, USA",38.8867,-77.4457,20151
Microsoft Azure,42010 Growth Mindset,"42010 Growth Mindset Lane, Stone Ridge, Virginia 20105, USA",38.9577,-77.6038,20105
H5 Data Centers,Quincy Data Center,"1711 M Street Northeast, Quincy, WA, USA",47.25256676192,-119.819691711953,
CBRE,2301 Maguire Data Center,"2301 Maguire Boulevard, Columbia, MO, USA",38.923530512919,-92.288383996248,
EdgeConnex,SVC02 Santa Clara Data Center,"1700 Richard Avenue, Santa Clara, CA, USA",37.364465551155,-121.958798748422,
H5 Data Centers,Seattle Data Center,"1000 Denny Way, Seattle, WA, USA",47.619066232638,-122.336510774836,
AiNET,One Market Center,"300 W Lexington St, Baltimore, MD 21201, USA",39.2946,-76.6252,21201
Expedient,Baltimore Tide Point Data Center,"1050 Hull Street, Baltimore, MD, USA",39.274797341449,-76.590921858601,
1547 Critical Systems Realty,HAII1 AlohaNAP Data Center,"91-340 Farrington Hwy, Kapolei, HI, USA",21.335728010785,-158.086737989488,
Crown Castle,Crown Castle Stamford 2,"5 Landmark Square, Stamford, Connecticut 06901, USA",41.0531,-73.539,06901
Ntirety,Denver Data Center,"888 South Broadway, Denver, CO, USA",39.700430803793,-104.987206023646,
Flexential,Portland - Hillsboro 5 Data Center,"4975 NE Starr Blvd, Hillsboro, OR, USA",45.556464724036,-122.939329623682,
Lumen,Fort Myers 1 Data Center,"1547 Seaboard Street, Fort Myers, FL, USA",26.648942924407,-81.853939314305,
Colocation Northwest,Tacoma Data Center,"1101 A Street, Tacoma, WA, USA",47.253334502342,-122.436901332083,
Mountain West Technology Networks,South Eastern Wyoming - Cheyenne Data Center,"6101 Yellowstone Rd, Cheyenne, WY, USA",41.175619988318,-104.827895967675,
Windstream,"Cleveland, OH Data Center","200 W Prospect Ave, Cleveland, Ohio 44115, USA",41.4946,-81.667,44115
Amazon AWS,25420 Sutton Bay,"25420 Sutton Bay Plz, South Riding, VA 20152, USA",38.8976,-77.5092,20152
Digital Realty,Dallas DFW26 Data Center,"2501 Texas 121, Lewisville, TX, USA",33.001979949419,-96.997342816087,
CenterServ,Milwaukee Data Center,"250 E Wisconsin Ave, Milwaukee, WI, USA",43.039270864352,-87.908301301258,
QuadraNet,Dallas Data Center,"3004 Irving Blvd, Dallas, TX, USA",32.807713920627,-96.857798712728,
DataBank,DataBank CLE1 Data Center,"1255 Euclid Avenue, Cleveland, OH, USA",41.500876975013,-81.683513010705,
Irongate,110 North First Street,"110 North 1st Street, Minneapolis, MN, USA",44.985107977402,-93.267911725337,
DataBank,DataBank DEN5 Data Center,"6961 South Quentin Street, Centennial, CO 80112, USA",39.5805,-104.9011,80112
Amazon AWS,IAD101 Manassas,"10301 Tanner Way, Manassas, VA 20110, USA",38.7492,-77.4878,20110
QuadraNet,Seattle Data Center,"12201 Tukwila International Blvd, Tukwila, WA, USA",42.6526,-73.7562,12201
TierPoint,St. Louis - Olive Data Center,"1111 Olive Street, St. Louis, MO, USA",38.629760648417,-90.196397001947,
H5 Data Centers,Omaha Data Center,"10917 Harry Watanabe Pkwy, La Vista, NE, USA",41.3268,-74.122,10917
FirstLight,Rockland Data Center,"1050 Hingham St, Rockland, MA 02370, USA",42.1293,-70.9133,02370
Lumen,Amarillo 1 Data Center,"512 SE 8th Ave, Amarillo, TX, USA",35.204534011523,-101.831543027345,
Lincoln Rackhouse,Plano Data Center,"1000 Coit Rd, Plano, TX, USA",33.014862180229,-96.765032083152,
639 Solar,639 Cloud - DC1,"106 NM-113, Lordsburg, NM 88065, USA",32.7098,-108.302,88065
Lumen,New Haven 1 Data Center,"54 Meadow Street, New Haven, CT, USA",41.300008185813,-72.926104009583,
FDCservers.net,DE1 CoreSite,"910 15th Street, Denver, CO, USA",39.74566282227,-104.995575270148,
Colocation America,Boston DC1 Data Center,"34 Saint Martin Drive, Marlborough, MA, USA",42.313287408237,-71.578425155756,
DataBank,HOU2 - Westway Park II Data Center,"5170 Westway Park Blvd, Houston, TX 77041, USA",29.8602,-95.5817,77041
Liquid Web,Phoenix Data Center,"3402 E University Dr, Phoenix, Arizona 85034, USA",33.4413,-112.0421,85034
DC BLOX,Greenville GSP1 Data Center,"33 Global Drive, Greenville, SC, USA",34.806881479363,-82.345582191993,
Equinix,NY12 Piscataway Data Center,"201b Centennial Avenue, Piscataway Township, NJ, USA",40.544493901797,-74.49609272857,
Vantage Data Centers,TX11 - San Antonio Data Center,"14720 Omicron Dr, San Antonio, Texas 78245, USA",29.4189,-98.6895,78245
Digital Realty,Dallas DFW12 Data Center,"2440 Marsh Lane, Carrollton, TX, USA",32.979984201016,-96.853472058127,
DartPoints,Baton Rouge Data Center 2,"7139 Florida Blvd, Baton Rouge, LA 70806, USA",30.4485,-91.13,70806
DC BLOX,Myrtle Beach Cable Landing Station,"1401 Howard Avenue, Myrtle Beach, SC, USA",33.663315098731,-78.938206213562,
365 Data Centers,PA2 Pittsburgh Data Center,"100 South Commons suite 126, Pittsburgh, PA, USA",40.451011415781,-80.005192384126,
Chirisa Technology Parks,"YLO-02 YLO-01Chicago Campus, IL","300 South Fish Lake Road, Volo, IL, United States",42.323830668965,-88.147644870052,
Verizon,Verizon Memphis,"5127 Truse Rd, Memphis, Tennessee 38117, USA",35.1124,-89.9034,38117
Evocative,Dallas Data Center (DAL6),"1221 Coit Road, Plano, TX, USA",33.015686749954,-96.768429100871,
CoreSite,DC1 Washington DC Data Center,"1275 K Street Northwest, Washington, DC, USA",38.902900260362,-77.029150220113,
H5 Data Centers,St. Louis Data Center,"710 N Tucker Blvd, St. Louis, MO, USA",38.632753658403,-90.195661489943,
EdgeConnex,NAS01 Nashville Data Center,"1841 Air Lane Drive bldg 3, Nashville, TN 37210, USA",36.1379,-86.741,37210
Cologix,DSM1 Des Moines Data Center,"666 Walnut Street, Des Moines, Iowa, USA",41.585533400805,-93.625499975693,
LightEdge,Saint Louis Data Center,"210 Tucker Blvd, St. Louis, Missouri, USA",38.629298009271,-90.197304007689,
OneSource Cloud Corporation,CT cage Data Center,"600 West 7th Street suite 570, Los Angeles, CA 90017, USA",34.0559,-118.2666,90017
US Signal,South Bend Data Center,"506 West South Street, South Bend, IN, USA",41.669345559398,-86.255823674731,
Amazon AWS,Virginia Mallory Campu,"3980 Virginia Mallory Drive, Chantilly, Virginia 20151, USA",38.8867,-77.4457,20151
Simple Helix,Huntsville Data Center,"165 West Park Loop Northwest, Huntsville, AL, USA",34.74547222012,-86.691930995645,
Evocative,Seattle Data Center (SEA1),"140 4th Avenue North, Seattle, WA 98109, USA",47.6339,-122.3476,98109
Skybox Datacenters,Chicago I Data Center,"800 E Devon Ave, Elk Grove Village, Illinois 60007, USA",42.0076,-87.9931,60007
Microsoft Azure,Project Ginger West,"11100 Booneville Rd, West Des Moines, Iowa 50266, USA",41.5695,-93.7994,50266
Lumen,San Diego 1 Data Center,"8929 Aero Drive, San Diego, CA, USA",32.808996184174,-117.135894995712,
Amazon AWS,IAD24 Manassas,"7610 Mason King Ct, Manassas, VA, USA",38.790407534125,-77.540022021877,
EdgeConnex,MSP01 Minneapolis Data Center,"6875 Shady Oak Road, Eden Prairie, MN 55344, USA",44.8574,-93.4376,55344
US Signal,Oak Brook Data Center,"810 Jorie Blvd, Oak Brook, IL, USA",41.846267335045,-87.939704772057,
Prime Data Centers,Prime Santa Clara - 2215 Martin,"2215 Martin Avenue, Santa Clara, CA, USA",37.366711733568,-121.962779649516,
Stream Data Centers,Houston 1 - The Woodlands Data Center,"4001 Technology Forest Blvd, The Woodlands, TX, USA",30.17794556924,-95.486367892235,
CBRE,7400 World Communications Dr Data Center,"7400 World Communications Drive, Omaha, NE, USA",41.338262688992,-96.027589811025,
EdgeConnex,LAS01 Las Vegas Data Center,"1541 East Pama Lane, Las Vegas, NV, USA",36.065201114894,-115.130720378426,
Aligned Data Centers,IAD-04 Data Center,"5601 Manor Woods Road, Frederick, MD 21703, USA",39.3647,-77.4636,21703
Amazon AWS,IAD51 (Prologis building #9),"45220 Prologis Plaza, Sterling, VA, USA",39.1432,-84.5217,45220
Aligned Data Centers,DFW-01 Data Center,"2800 Summit Ave, Plano, TX 75074, USA",33.0277,-96.6777,75074
CoreSite,OR1 Orlando Data Center,"9701 South John Young Parkway, Orlando, FL, USA",28.427220051376,-81.419874244099,
TierPoint,Charlotte - North Myers Data Center,"125 North Myers Street, Charlotte, NC, USA",35.222074526931,-80.835264241712,
Csquare,DEN1-B Highlands Ranch Data Center,"9110 Commerce Center Circle, Highlands Ranch, CO 80129, USA",39.5397,-105.0109,80129
Irongate,"401 Bielenberg Dr, Woodbury","401 Bielenberg Dr, Woodbury, MN, USA",44.946267830649,-92.952658037167,
Lumen,Baton Rouge 2 Data Center,"9826 Burbank Dr, Baton Rouge, LA, USA",30.357119771818,-91.11872620467,
CenterServ,Boise Data Center,"950 West Bannock Street, Boise, ID, USA",43.618268176736,-116.203888047581,
365 Data Centers,CO2 Denver Data Center,"8636 South Peoria Street, Greenwood Village, CO, USA",39.558980110827,-104.838264884818,
FirstLight,Bedford Data Center,"8 Commerce Drive, Bedford, NH, USA",42.928268021405,-71.463691401977,
Amazon AWS,22900 Platform Plz,"22900 Platform Plz, Dulles, VA 20166, USA",38.9814,-77.4723,20166
Lumen,Phoenix 1 Data Center,"811 South 16th Street, Phoenix, AZ, USA",33.44006912943,-112.047145605109,
FirstLight,Portsmouth Data Center,"359 Corporate Drive, Portsmouth, NH, USA",43.072746215888,-70.802759393492,
Lumen,Cambridge 1 Data Center,"300 Bent Street, Cambridge, MA, USA",42.367348546333,-71.086757383815,
H5 Data Centers,Quincy II Data Center,"1500 M Street Northeast, Quincy, WA, USA",47.247695241704,-119.825534485199,
Amazon AWS,7500 Bethlehem,"Historic District, 7500 Bethlehem Rd, Manassas, VA 20109, USA",38.793,-77.5266,20109
Amazon AWS,IAD16 Sterling,"22651 Dulles Summit Ct, Sterling, VA, USA",38.990678316444,-77.448829010804,22651
Digital Realty,Silicon Valley OAK10 Data Center,"720 2nd Street, Oakland, CA, USA",37.799109936598,-122.282782272567,
AUBix,Auburn Data Center,"1571 W Samford Ave, Auburn, AL 36832, USA",32.592,-85.5189,36832
Stack Infrastructure,ATL02 Atlanta Data Center,"808 Factory Shoals Rd, Lithia Springs, Georgia 30122, USA",33.7655,-84.6469,30122
TierPoint,New York - 11 Skyline - Hawthorne Data Center,"11 Skyline Drive, Hawthorne, NY, USA",41.089183065014,-73.814499903857,
DataBank,SNA2 Irvine Data Center,"17400 Von Karman Avenue, Irvine, CA, USA",33.68826633491,-117.842816243806,17400
CoreSite,NY1 New York Data Center,"32 Avenue of the Americas, 6th Avenue, New York, NY, USA",40.719879,-74.004302,
Skybox Datacenters,Houston I Data Center,"22000 Franz Rd, Katy, TX 77449, USA",29.8323,-95.736,77449
Digital Realty,Dallas DFW36 Data Center,"8435 North Stemmons Freeway, Dallas, TX, USA",32.827263871593,-96.873998165538,
Prime Data Centers,Prime Sacramento - 2407 AK Street,"2407 Ak St, McClellan Park, CA 95652, USA",38.6621,-121.3955,95652
